[
  {
    "name": "Berlin",
    "lat": 52.52437,
    "lon": 13.41053,
    "bundesland": "Berlin",
    "einwohner": 3685265,
    "flaeche": 891.12,
    "hoehe": 34,
    "kfz": "B",
    "fluesse": [
      "Spree",
      "Havel"
    ]
  },
  {
    "name": "Hamburg",
    "lat": 53.55073,
    "lon": 9.99302,
    "bundesland": "Hamburg",
    "einwohner": 1862565,
    "flaeche": 755.09,
    "hoehe": 6,
    "kfz": "HH",
    "fluesse": [
      "Elbe",
      "Alster"
    ]
  },
  {
    "name": "München",
    "lat": 48.13743,
    "lon": 11.57549,
    "bundesland": "Bayern",
    "einwohner": 1505005,
    "flaeche": 310.7,
    "hoehe": 520,
    "kfz": "M",
    "fluesse": [
      "Isar"
    ]
  },
  {
    "name": "Köln",
    "lat": 50.93333,
    "lon": 6.95,
    "bundesland": "Nordrhein-Westfalen",
    "einwohner": 1024621,
    "flaeche": 405.02,
    "hoehe": 37,
    "kfz": "K",
    "fluesse": [
      "Rhein"
    ]
  },
  {
    "name": "Frankfurt am Main",
    "lat": 50.11552,
    "lon": 8.68417,
    "bundesland": "Hessen",
    "einwohner": 756021,
    "flaeche": 248.31,
    "hoehe": 112,
    "kfz": "F",
    "fluesse": [
      "Main"
    ]
  },
  {
    "name": "Düsseldorf",
    "lat": 51.22172,
    "lon": 6.77616,
    "bundesland": "Nordrhein-Westfalen",
    "einwohner": 618685,
    "flaeche": 217.41,
    "hoehe": 38,
    "kfz": "D",
    "fluesse": [
      "Rhein"
    ]
  },
  {
    "name": "Stuttgart",
    "lat": 48.78232,
    "lon": 9.17702,
    "bundesland": "Baden-Württemberg",
    "einwohner": 612663,
    "flaeche": 207.33,
    "hoehe": 245,
    "kfz": "S",
    "fluesse": [
      "Neckar"
    ]
  },
  {
    "name": "Leipzig",
    "lat": 51.33962,
    "lon": 12.37129,
    "bundesland": "Sachsen",
    "einwohner": 611850,
    "flaeche": 297.8,
    "hoehe": 113,
    "kfz": "L",
    "fluesse": [
      "Pleiße",
      "Weiße Elster"
    ]
  },
  {
    "name": "Dortmund",
    "lat": 51.51494,
    "lon": 7.466,
    "bundesland": "Nordrhein-Westfalen",
    "einwohner": 603462,
    "flaeche": 280.71,
    "hoehe": 86,
    "kfz": "DO",
    "fluesse": [
      "Emscher",
      "Ruhr"
    ]
  },
  {
    "name": "Bremen",
    "lat": 53.07582,
    "lon": 8.80717,
    "bundesland": "Bremen",
    "einwohner": 586271,
    "flaeche": 318.2,
    "hoehe": 7,
    "kfz": "HB",
    "fluesse": [
      "Weser"
    ]
  },
  {
    "name": "Essen",
    "lat": 51.45657,
    "lon": 7.01228,
    "bundesland": "Nordrhein-Westfalen",
    "einwohner": 574682,
    "flaeche": 210.34,
    "hoehe": 116,
    "kfz": "E",
    "fluesse": [
      "Ruhr"
    ]
  },
  {
    "name": "Dresden",
    "lat": 51.05089,
    "lon": 13.73832,
    "bundesland": "Sachsen",
    "einwohner": 564904,
    "flaeche": 328.48,
    "hoehe": 113,
    "kfz": "DD",
    "fluesse": [
      "Elbe"
    ]
  },
  {
    "name": "Nürnberg",
    "lat": 49.45421,
    "lon": 11.07752,
    "bundesland": "Bayern",
    "einwohner": 529508,
    "flaeche": 186.44,
    "hoehe": 309,
    "kfz": "N",
    "fluesse": [
      "Pegnitz",
      "Rednitz"
    ]
  },
  {
    "name": "Hannover",
    "lat": 52.37052,
    "lon": 9.73322,
    "bundesland": "Niedersachsen",
    "einwohner": 522131,
    "flaeche": 204.3,
    "hoehe": 55,
    "kfz": "H",
    "fluesse": [
      "Leine"
    ]
  },
  {
    "name": "Duisburg",
    "lat": 51.43247,
    "lon": 6.76516,
    "bundesland": "Nordrhein-Westfalen",
    "einwohner": 502270,
    "flaeche": 232.84,
    "hoehe": 38,
    "kfz": "DU",
    "fluesse": []
  },
  {
    "name": "Bochum",
    "lat": 51.48165,
    "lon": 7.21648,
    "bundesland": "Nordrhein-Westfalen",
    "einwohner": 358676,
    "flaeche": 145.66,
    "hoehe": 102,
    "kfz": "BO",
    "fluesse": []
  },
  {
    "name": "Wuppertal",
    "lat": 51.25627,
    "lon": 7.14816,
    "bundesland": "Nordrhein-Westfalen",
    "einwohner": 358193,
    "flaeche": 168.39,
    "hoehe": 150,
    "kfz": "W",
    "fluesse": []
  },
  {
    "name": "Bielefeld",
    "lat": 52.03333,
    "lon": 8.53333,
    "bundesland": "Nordrhein-Westfalen",
    "einwohner": 331605,
    "flaeche": 258.83,
    "hoehe": 118,
    "kfz": "BI",
    "fluesse": [
      "Lutter"
    ]
  },
  {
    "name": "Bonn",
    "lat": 50.73438,
    "lon": 7.09549,
    "bundesland": "Nordrhein-Westfalen",
    "einwohner": 323336,
    "flaeche": 141.06,
    "hoehe": 64,
    "kfz": "BN",
    "fluesse": []
  },
  {
    "name": "Mannheim",
    "lat": 49.4891,
    "lon": 8.46694,
    "bundesland": "Baden-Württemberg",
    "einwohner": 318035,
    "flaeche": 144.97,
    "hoehe": 97,
    "kfz": "MA",
    "fluesse": [
      "Rhein",
      "Neckar"
    ]
  },
  {
    "name": "Karlsruhe",
    "lat": 49.00937,
    "lon": 8.40444,
    "bundesland": "Baden-Württemberg",
    "einwohner": 309050,
    "flaeche": 173.42,
    "hoehe": 116,
    "kfz": "KA",
    "fluesse": [
      "Rhein"
    ]
  },
  {
    "name": "Münster",
    "lat": 51.96236,
    "lon": 7.62571,
    "bundesland": "Nordrhein-Westfalen",
    "einwohner": 308258,
    "flaeche": 303.28,
    "hoehe": 60,
    "kfz": "MS",
    "fluesse": [
      "Aa"
    ]
  },
  {
    "name": "Augsburg",
    "lat": 48.37154,
    "lon": 10.89851,
    "bundesland": "Bayern",
    "einwohner": 301105,
    "flaeche": 146.85,
    "hoehe": 494,
    "kfz": "A",
    "fluesse": [
      "Lech",
      "Wertach"
    ]
  },
  {
    "name": "Wiesbaden",
    "lat": 50.08601,
    "lon": 8.24435,
    "bundesland": "Hessen",
    "einwohner": 288850,
    "flaeche": 203.87,
    "hoehe": 117,
    "kfz": "WI",
    "fluesse": [
      "Rhein"
    ]
  },
  {
    "name": "Gelsenkirchen",
    "lat": 51.50508,
    "lon": 7.09654,
    "bundesland": "Nordrhein-Westfalen",
    "einwohner": 267930,
    "flaeche": 104.94,
    "hoehe": 48,
    "kfz": "GE",
    "fluesse": []
  },
  {
    "name": "Mönchengladbach",
    "lat": 51.18539,
    "lon": 6.44172,
    "bundesland": "Nordrhein-Westfalen",
    "einwohner": 267213,
    "flaeche": 170.47,
    "hoehe": 57,
    "kfz": "",
    "fluesse": []
  },
  {
    "name": "Aachen",
    "lat": 50.77664,
    "lon": 6.08342,
    "bundesland": "Nordrhein-Westfalen",
    "einwohner": 262670,
    "flaeche": 160.85,
    "hoehe": 174,
    "kfz": "AC",
    "fluesse": [
      "Wurm"
    ]
  },
  {
    "name": "Braunschweig",
    "lat": 52.26594,
    "lon": 10.52673,
    "bundesland": "Niedersachsen",
    "einwohner": 252962,
    "flaeche": 192.7,
    "hoehe": 72,
    "kfz": "BS",
    "fluesse": [
      "Oker"
    ]
  },
  {
    "name": "Kiel",
    "lat": 54.32133,
    "lon": 10.13489,
    "bundesland": "Schleswig-Holstein",
    "einwohner": 252668,
    "flaeche": 118.65,
    "hoehe": 5,
    "kfz": "KI",
    "fluesse": []
  },
  {
    "name": "Chemnitz",
    "lat": 50.8357,
    "lon": 12.92922,
    "bundesland": "Sachsen",
    "einwohner": 245618,
    "flaeche": 221.03,
    "hoehe": 306,
    "kfz": "C",
    "fluesse": []
  },
  {
    "name": "Magdeburg",
    "lat": 52.13129,
    "lon": 11.63189,
    "bundesland": "Sachsen-Anhalt",
    "einwohner": 244329,
    "flaeche": 201.68,
    "hoehe": 50,
    "kfz": "MD",
    "fluesse": [
      "Elbe"
    ]
  },
  {
    "name": "Freiburg im Breisgau",
    "lat": 47.9959,
    "lon": 7.85222,
    "bundesland": "Baden-Württemberg",
    "einwohner": 237460,
    "flaeche": 153.04,
    "hoehe": 278,
    "kfz": "FR",
    "fluesse": []
  },
  {
    "name": "Krefeld",
    "lat": 51.33645,
    "lon": 6.55381,
    "bundesland": "Nordrhein-Westfalen",
    "einwohner": 231406,
    "flaeche": 137.77,
    "hoehe": 43,
    "kfz": "KR",
    "fluesse": []
  },
  {
    "name": "Halle (Saale)",
    "lat": 51.48158,
    "lon": 11.97947,
    "bundesland": "Sachsen-Anhalt",
    "einwohner": 226767,
    "flaeche": 135.56,
    "hoehe": 87,
    "kfz": "HAL",
    "fluesse": [
      "Saale"
    ]
  },
  {
    "name": "Mainz",
    "lat": 49.98185,
    "lon": 8.28008,
    "bundesland": "Rheinland-Pfalz",
    "einwohner": 224684,
    "flaeche": 97.73,
    "hoehe": 125,
    "kfz": "MZ",
    "fluesse": []
  },
  {
    "name": "Erfurt",
    "lat": 50.97734,
    "lon": 11.03536,
    "bundesland": "Thüringen",
    "einwohner": 218793,
    "flaeche": 269.91,
    "hoehe": 202,
    "kfz": "EF",
    "fluesse": [
      "Gera"
    ]
  },
  {
    "name": "Lübeck",
    "lat": 53.86893,
    "lon": 10.68729,
    "bundesland": "Schleswig-Holstein",
    "einwohner": 216889,
    "flaeche": 214.19,
    "hoehe": 12,
    "kfz": "HL",
    "fluesse": [
      "Trave"
    ]
  },
  {
    "name": "Oberhausen",
    "lat": 51.47805,
    "lon": 6.8625,
    "bundesland": "Nordrhein-Westfalen",
    "einwohner": 213646,
    "flaeche": 77.09,
    "hoehe": 44,
    "kfz": "OB",
    "fluesse": []
  },
  {
    "name": "Rostock",
    "lat": 54.0887,
    "lon": 12.14049,
    "bundesland": "Mecklenburg-Vorpommern",
    "einwohner": 205307,
    "flaeche": 181.36,
    "hoehe": 13,
    "kfz": "HRO",
    "fluesse": [
      "Warnow"
    ]
  },
  {
    "name": "Kassel",
    "lat": 51.31667,
    "lon": 9.5,
    "bundesland": "Hessen",
    "einwohner": 197230,
    "flaeche": 106.79,
    "hoehe": 163,
    "kfz": "KS",
    "fluesse": [
      "Fulda"
    ]
  },
  {
    "name": "Hagen",
    "lat": 51.36081,
    "lon": 7.47168,
    "bundesland": "Nordrhein-Westfalen",
    "einwohner": 190384,
    "flaeche": 160.45,
    "hoehe": 111,
    "kfz": "HA",
    "fluesse": []
  },
  {
    "name": "Potsdam",
    "lat": 52.39886,
    "lon": 13.06566,
    "bundesland": "Brandenburg",
    "einwohner": 184754,
    "flaeche": 188.24,
    "hoehe": 32,
    "kfz": "P",
    "fluesse": [
      "Havel"
    ]
  },
  {
    "name": "Saarbrücken",
    "lat": 49.23262,
    "lon": 7.00982,
    "bundesland": "Saarland",
    "einwohner": 182971,
    "flaeche": 167.52,
    "hoehe": 184,
    "kfz": "SB",
    "fluesse": [
      "Saar"
    ]
  },
  {
    "name": "Hamm",
    "lat": 51.68033,
    "lon": 7.82089,
    "bundesland": "Nordrhein-Westfalen",
    "einwohner": 179968,
    "flaeche": 226.66,
    "hoehe": 66,
    "kfz": "HAM",
    "fluesse": []
  },
  {
    "name": "Ludwigshafen am Rhein",
    "lat": 49.48121,
    "lon": 8.44641,
    "bundesland": "Rheinland-Pfalz",
    "einwohner": 177222,
    "flaeche": 77.43,
    "hoehe": 97,
    "kfz": "LU",
    "fluesse": []
  },
  {
    "name": "Oldenburg (Oldenburg)",
    "lat": 53.14039,
    "lon": 8.21479,
    "bundesland": "Niedersachsen",
    "einwohner": 176614,
    "flaeche": 103.09,
    "hoehe": 10,
    "kfz": "",
    "fluesse": []
  },
  {
    "name": "Mülheim an der Ruhr",
    "lat": 51.43218,
    "lon": 6.87967,
    "bundesland": "Nordrhein-Westfalen",
    "einwohner": 173050,
    "flaeche": 91.28,
    "hoehe": 40,
    "kfz": "MH",
    "fluesse": []
  },
  {
    "name": "Leverkusen",
    "lat": 51.0303,
    "lon": 6.98432,
    "bundesland": "Nordrhein-Westfalen",
    "einwohner": 168581,
    "flaeche": 78.87,
    "hoehe": 52,
    "kfz": "LEV",
    "fluesse": []
  },
  {
    "name": "Darmstadt",
    "lat": 49.87167,
    "lon": 8.65027,
    "bundesland": "Hessen",
    "einwohner": 167029,
    "flaeche": 122.07,
    "hoehe": 148,
    "kfz": "DA",
    "fluesse": []
  },
  {
    "name": "Osnabrück",
    "lat": 52.27264,
    "lon": 8.0498,
    "bundesland": "Niedersachsen",
    "einwohner": 166057,
    "flaeche": 119.8,
    "hoehe": 69,
    "kfz": "OSD",
    "fluesse": []
  },
  {
    "name": "Solingen",
    "lat": 51.17343,
    "lon": 7.0845,
    "bundesland": "Nordrhein-Westfalen",
    "einwohner": 165626,
    "flaeche": 89.54,
    "hoehe": 229,
    "kfz": "",
    "fluesse": []
  },
  {
    "name": "Paderborn",
    "lat": 51.71905,
    "lon": 8.75439,
    "bundesland": "Nordrhein-Westfalen",
    "einwohner": 156378,
    "flaeche": 179.59,
    "hoehe": 118,
    "kfz": "PB",
    "fluesse": []
  },
  {
    "name": "Herne",
    "lat": 51.5388,
    "lon": 7.22572,
    "bundesland": "Nordrhein-Westfalen",
    "einwohner": 155851,
    "flaeche": 51.42,
    "hoehe": 67,
    "kfz": "HER",
    "fluesse": []
  },
  {
    "name": "Heidelberg",
    "lat": 49.40768,
    "lon": 8.69079,
    "bundesland": "Baden-Württemberg",
    "einwohner": 155756,
    "flaeche": 108.83,
    "hoehe": 115,
    "kfz": "HD",
    "fluesse": []
  },
  {
    "name": "Neuss",
    "lat": 51.19807,
    "lon": 6.68504,
    "bundesland": "Nordrhein-Westfalen",
    "einwohner": 154317,
    "flaeche": 99.52,
    "hoehe": 44,
    "kfz": "NE",
    "fluesse": []
  },
  {
    "name": "Regensburg",
    "lat": 49.01513,
    "lon": 12.10161,
    "bundesland": "Bayern",
    "einwohner": 151389,
    "flaeche": 80.86,
    "hoehe": 338,
    "kfz": "R",
    "fluesse": [
      "Donau",
      "Regen"
    ]
  },
  {
    "name": "Ingolstadt",
    "lat": 48.76508,
    "lon": 11.42372,
    "bundesland": "Bayern",
    "einwohner": 141185,
    "flaeche": 133.35,
    "hoehe": 379,
    "kfz": "ING",
    "fluesse": []
  },
  {
    "name": "Pforzheim",
    "lat": 48.88436,
    "lon": 8.69892,
    "bundesland": "Baden-Württemberg",
    "einwohner": 134912,
    "flaeche": 97.99,
    "hoehe": 256,
    "kfz": "PH",
    "fluesse": []
  },
  {
    "name": "Würzburg",
    "lat": 49.79391,
    "lon": 9.95121,
    "bundesland": "Bayern",
    "einwohner": 133258,
    "flaeche": 87.6,
    "hoehe": 177,
    "kfz": "WÜ",
    "fluesse": [
      "Main"
    ]
  },
  {
    "name": "Offenbach am Main",
    "lat": 50.10061,
    "lon": 8.76647,
    "bundesland": "Hessen",
    "einwohner": 132746,
    "flaeche": 44.88,
    "hoehe": 113,
    "kfz": "OF",
    "fluesse": []
  },
  {
    "name": "Fürth",
    "lat": 49.47593,
    "lon": 10.98856,
    "bundesland": "Bayern",
    "einwohner": 132036,
    "flaeche": 63.35,
    "hoehe": 302,
    "kfz": "FU",
    "fluesse": []
  },
  {
    "name": "Heilbronn",
    "lat": 49.13995,
    "lon": 9.22054,
    "bundesland": "Baden-Württemberg",
    "einwohner": 131986,
    "flaeche": 99.89,
    "hoehe": 173,
    "kfz": "HNO",
    "fluesse": []
  },
  {
    "name": "Ulm",
    "lat": 48.39841,
    "lon": 9.99155,
    "bundesland": "Baden-Württemberg",
    "einwohner": 129882,
    "flaeche": 118.68,
    "hoehe": 478,
    "kfz": "UL",
    "fluesse": [
      "Donau",
      "Iller"
    ]
  },
  {
    "name": "Wolfsburg",
    "lat": 52.42452,
    "lon": 10.7815,
    "bundesland": "Niedersachsen",
    "einwohner": 129560,
    "flaeche": 204.62,
    "hoehe": 62,
    "kfz": "WOB",
    "fluesse": []
  },
  {
    "name": "Göttingen",
    "lat": 51.53443,
    "lon": 9.93228,
    "bundesland": "Niedersachsen",
    "einwohner": 127259,
    "flaeche": 117.02,
    "hoehe": 153,
    "kfz": "GÖ",
    "fluesse": []
  },
  {
    "name": "Reutlingen",
    "lat": 48.49144,
    "lon": 9.20427,
    "bundesland": "Baden-Württemberg",
    "einwohner": 118852,
    "flaeche": 87.04,
    "hoehe": 374,
    "kfz": "RT",
    "fluesse": []
  },
  {
    "name": "Bremerhaven",
    "lat": 53.55357,
    "lon": 8.57553,
    "bundesland": "Bremen",
    "einwohner": 118610,
    "flaeche": 101.41,
    "hoehe": 2,
    "kfz": "BKS",
    "fluesse": []
  },
  {
    "name": "Bottrop",
    "lat": 51.52392,
    "lon": 6.9285,
    "bundesland": "Nordrhein-Westfalen",
    "einwohner": 118535,
    "flaeche": 100.61,
    "hoehe": 55,
    "kfz": "BOT",
    "fluesse": []
  },
  {
    "name": "Erlangen",
    "lat": 49.59099,
    "lon": 11.00783,
    "bundesland": "Bayern",
    "einwohner": 115928,
    "flaeche": 76.96,
    "hoehe": 290,
    "kfz": "",
    "fluesse": []
  },
  {
    "name": "Recklinghausen",
    "lat": 51.61379,
    "lon": 7.19738,
    "bundesland": "Nordrhein-Westfalen",
    "einwohner": 115344,
    "flaeche": 66.5,
    "hoehe": 80,
    "kfz": "RE",
    "fluesse": []
  },
  {
    "name": "Remscheid",
    "lat": 51.17983,
    "lon": 7.1925,
    "bundesland": "Nordrhein-Westfalen",
    "einwohner": 113828,
    "flaeche": 74.52,
    "hoehe": 351,
    "kfz": "RS",
    "fluesse": []
  },
  {
    "name": "Koblenz",
    "lat": 50.35357,
    "lon": 7.57883,
    "bundesland": "Rheinland-Pfalz",
    "einwohner": 113378,
    "flaeche": 105.25,
    "hoehe": 64,
    "kfz": "KO",
    "fluesse": [
      "Rhein",
      "Mosel"
    ]
  },
  {
    "name": "Bergisch Gladbach",
    "lat": 50.9856,
    "lon": 7.13298,
    "bundesland": "Nordrhein-Westfalen",
    "einwohner": 111361,
    "flaeche": 83.09,
    "hoehe": 98,
    "kfz": "",
    "fluesse": []
  },
  {
    "name": "Jena",
    "lat": 50.92878,
    "lon": 11.5899,
    "bundesland": "Thüringen",
    "einwohner": 109725,
    "flaeche": 114.77,
    "hoehe": 155,
    "kfz": "J",
    "fluesse": [
      "Saale"
    ]
  },
  {
    "name": "Salzgitter",
    "lat": 52.15705,
    "lon": 10.4154,
    "bundesland": "Niedersachsen",
    "einwohner": 104970,
    "flaeche": 224.49,
    "hoehe": 99,
    "kfz": "",
    "fluesse": []
  },
  {
    "name": "Trier",
    "lat": 49.75565,
    "lon": 6.63935,
    "bundesland": "Rheinland-Pfalz",
    "einwohner": 104342,
    "flaeche": 117.06,
    "hoehe": 124,
    "kfz": "TR",
    "fluesse": [
      "Mosel"
    ]
  },
  {
    "name": "Siegen",
    "lat": 50.87481,
    "lon": 8.02431,
    "bundesland": "Nordrhein-Westfalen",
    "einwohner": 102685,
    "flaeche": 114.69,
    "hoehe": 272,
    "kfz": "SI",
    "fluesse": []
  },
  {
    "name": "Moers",
    "lat": 51.45342,
    "lon": 6.6326,
    "bundesland": "Nordrhein-Westfalen",
    "einwohner": 101503,
    "flaeche": 67.64,
    "hoehe": 29,
    "kfz": "MO",
    "fluesse": []
  },
  {
    "name": "Gütersloh",
    "lat": 51.90693,
    "lon": 8.37853,
    "bundesland": "Nordrhein-Westfalen",
    "einwohner": 100479,
    "flaeche": 112.02,
    "hoehe": 79,
    "kfz": "GT",
    "fluesse": []
  },
  {
    "name": "Kaiserslautern",
    "lat": 49.443,
    "lon": 7.77161,
    "bundesland": "Rheinland-Pfalz",
    "einwohner": 100426,
    "flaeche": 139.7,
    "hoehe": 240,
    "kfz": "PS",
    "fluesse": []
  },
  {
    "name": "Hildesheim",
    "lat": 52.15077,
    "lon": 9.95112,
    "bundesland": "Niedersachsen",
    "einwohner": 98510,
    "flaeche": 92.29,
    "hoehe": 93,
    "kfz": "HI",
    "fluesse": []
  },
  {
    "name": "Schwerin",
    "lat": 53.62937,
    "lon": 11.41316,
    "bundesland": "Mecklenburg-Vorpommern",
    "einwohner": 98308,
    "flaeche": 130.52,
    "hoehe": 38,
    "kfz": "SN",
    "fluesse": []
  },
  {
    "name": "Hanau",
    "lat": 50.13303,
    "lon": 8.91526,
    "bundesland": "Hessen",
    "einwohner": 97956,
    "flaeche": 76.28,
    "hoehe": 100,
    "kfz": "HU",
    "fluesse": []
  },
  {
    "name": "Flensburg",
    "lat": 54.78805,
    "lon": 9.43722,
    "bundesland": "Schleswig-Holstein",
    "einwohner": 96326,
    "flaeche": 56.73,
    "hoehe": 20,
    "kfz": "FL",
    "fluesse": []
  },
  {
    "name": "Esslingen am Neckar",
    "lat": 48.73961,
    "lon": 9.30473,
    "bundesland": "Baden-Württemberg",
    "einwohner": 96182,
    "flaeche": 46.43,
    "hoehe": 241,
    "kfz": "ES",
    "fluesse": []
  },
  {
    "name": "Gera",
    "lat": 50.88029,
    "lon": 12.08187,
    "bundesland": "Thüringen",
    "einwohner": 95608,
    "flaeche": 152.18,
    "hoehe": 203,
    "kfz": "G",
    "fluesse": []
  },
  {
    "name": "Cottbus/Chóśebuz",
    "lat": 51.75769,
    "lon": 14.32888,
    "bundesland": "Brandenburg",
    "einwohner": 95123,
    "flaeche": 165.61,
    "hoehe": 80,
    "kfz": "",
    "fluesse": []
  },
  {
    "name": "Düren",
    "lat": 50.80434,
    "lon": 6.49299,
    "bundesland": "Nordrhein-Westfalen",
    "einwohner": 94568,
    "flaeche": 85.01,
    "hoehe": 142,
    "kfz": "DN",
    "fluesse": []
  },
  {
    "name": "Ludwigsburg",
    "lat": 48.89731,
    "lon": 9.19161,
    "bundesland": "Baden-Württemberg",
    "einwohner": 92858,
    "flaeche": 43.34,
    "hoehe": 298,
    "kfz": "",
    "fluesse": []
  },
  {
    "name": "Tübingen",
    "lat": 48.52266,
    "lon": 9.05222,
    "bundesland": "Baden-Württemberg",
    "einwohner": 92322,
    "flaeche": 108.07,
    "hoehe": 333,
    "kfz": "TÜ",
    "fluesse": []
  },
  {
    "name": "Iserlohn",
    "lat": 51.37547,
    "lon": 7.70281,
    "bundesland": "Nordrhein-Westfalen",
    "einwohner": 91811,
    "flaeche": 125.49,
    "hoehe": 253,
    "kfz": "",
    "fluesse": []
  },
  {
    "name": "Witten",
    "lat": 51.44362,
    "lon": 7.35258,
    "bundesland": "Nordrhein-Westfalen",
    "einwohner": 91808,
    "flaeche": 72.4,
    "hoehe": 119,
    "kfz": "WIT",
    "fluesse": []
  },
  {
    "name": "Villingen-Schwenningen",
    "lat": 48.06226,
    "lon": 8.49358,
    "bundesland": "Baden-Württemberg",
    "einwohner": 89756,
    "flaeche": 165.53,
    "hoehe": 757,
    "kfz": "VN",
    "fluesse": []
  },
  {
    "name": "Ratingen",
    "lat": 51.29724,
    "lon": 6.84929,
    "bundesland": "Nordrhein-Westfalen",
    "einwohner": 89368,
    "flaeche": 88.74,
    "hoehe": 64,
    "kfz": "",
    "fluesse": []
  },
  {
    "name": "Gießen",
    "lat": 50.58727,
    "lon": 8.67554,
    "bundesland": "Hessen",
    "einwohner": 89179,
    "flaeche": 72.61,
    "hoehe": 162,
    "kfz": "GI",
    "fluesse": []
  },
  {
    "name": "Zwickau",
    "lat": 50.72724,
    "lon": 12.48839,
    "bundesland": "Sachsen",
    "einwohner": 87410,
    "flaeche": 102.58,
    "hoehe": 267,
    "kfz": "ZWT",
    "fluesse": []
  },
  {
    "name": "Konstanz",
    "lat": 47.66033,
    "lon": 9.17582,
    "bundesland": "Baden-Württemberg",
    "einwohner": 86919,
    "flaeche": 54.12,
    "hoehe": 402,
    "kfz": "KN",
    "fluesse": []
  },
  {
    "name": "Marl",
    "lat": 51.65671,
    "lon": 7.09038,
    "bundesland": "Nordrhein-Westfalen",
    "einwohner": 86766,
    "flaeche": 87.76,
    "hoehe": 56,
    "kfz": "",
    "fluesse": []
  },
  {
    "name": "Worms",
    "lat": 49.63278,
    "lon": 8.35916,
    "bundesland": "Rheinland-Pfalz",
    "einwohner": 86753,
    "flaeche": 108.73,
    "hoehe": 104,
    "kfz": "WO",
    "fluesse": []
  },
  {
    "name": "Lünen",
    "lat": 51.61634,
    "lon": 7.52872,
    "bundesland": "Nordrhein-Westfalen",
    "einwohner": 86163,
    "flaeche": 59.39,
    "hoehe": 57,
    "kfz": "LÜN",
    "fluesse": []
  },
  {
    "name": "Minden",
    "lat": 52.28953,
    "lon": 8.91455,
    "bundesland": "Nordrhein-Westfalen",
    "einwohner": 84013,
    "flaeche": 101.12,
    "hoehe": 59,
    "kfz": "MI",
    "fluesse": []
  },
  {
    "name": "Norderstedt",
    "lat": 53.70177,
    "lon": 9.99328,
    "bundesland": "Schleswig-Holstein",
    "einwohner": 82844,
    "flaeche": 58.1,
    "hoehe": 34,
    "kfz": "",
    "fluesse": []
  },
  {
    "name": "Velbert",
    "lat": 51.33537,
    "lon": 7.04348,
    "bundesland": "Nordrhein-Westfalen",
    "einwohner": 82463,
    "flaeche": 74.9,
    "hoehe": 245,
    "kfz": "",
    "fluesse": []
  },
  {
    "name": "Delmenhorst",
    "lat": 53.0511,
    "lon": 8.63091,
    "bundesland": "Niedersachsen",
    "einwohner": 81406,
    "flaeche": 62.45,
    "hoehe": 10,
    "kfz": "DEL",
    "fluesse": []
  },
  {
    "name": "Neumünster",
    "lat": 54.07399,
    "lon": 9.98456,
    "bundesland": "Schleswig-Holstein",
    "einwohner": 79809,
    "flaeche": 71.66,
    "hoehe": 24,
    "kfz": "NMS",
    "fluesse": []
  },
  {
    "name": "Viersen",
    "lat": 51.25435,
    "lon": 6.39441,
    "bundesland": "Nordrhein-Westfalen",
    "einwohner": 78373,
    "flaeche": 91.1,
    "hoehe": 44,
    "kfz": "VIE",
    "fluesse": []
  },
  {
    "name": "Rheine",
    "lat": 52.28509,
    "lon": 7.44055,
    "bundesland": "Nordrhein-Westfalen",
    "einwohner": 77209,
    "flaeche": 145.0,
    "hoehe": 41,
    "kfz": "ST",
    "fluesse": []
  },
  {
    "name": "Bamberg",
    "lat": 49.89873,
    "lon": 10.90067,
    "bundesland": "Bayern",
    "einwohner": 77150,
    "flaeche": 54.62,
    "hoehe": 243,
    "kfz": "BA",
    "fluesse": []
  },
  {
    "name": "Troisdorf",
    "lat": 50.80901,
    "lon": 7.14968,
    "bundesland": "Nordrhein-Westfalen",
    "einwohner": 75901,
    "flaeche": 62.0,
    "hoehe": 55,
    "kfz": "",
    "fluesse": []
  },
  {
    "name": "Wilhelmshaven",
    "lat": 53.5476,
    "lon": 8.10395,
    "bundesland": "Niedersachsen",
    "einwohner": 75745,
    "flaeche": 107.11,
    "hoehe": 2,
    "kfz": "WHV",
    "fluesse": []
  },
  {
    "name": "Gladbeck",
    "lat": 51.57077,
    "lon": 6.98593,
    "bundesland": "Nordrhein-Westfalen",
    "einwohner": 75499,
    "flaeche": 35.97,
    "hoehe": 60,
    "kfz": "",
    "fluesse": []
  },
  {
    "name": "Dessau-Roßlau",
    "lat": 51.83864,
    "lon": 12.24555,
    "bundesland": "Sachsen-Anhalt",
    "einwohner": 75402,
    "flaeche": 245.78,
    "hoehe": 63,
    "kfz": "DE",
    "fluesse": []
  },
  {
    "name": "Dorsten",
    "lat": 51.66166,
    "lon": 6.96514,
    "bundesland": "Nordrhein-Westfalen",
    "einwohner": 75277,
    "flaeche": 171.2,
    "hoehe": 36,
    "kfz": "DOR",
    "fluesse": []
  },
  {
    "name": "Arnsberg",
    "lat": 51.38333,
    "lon": 8.08333,
    "bundesland": "Nordrhein-Westfalen",
    "einwohner": 74879,
    "flaeche": 193.72,
    "hoehe": 295,
    "kfz": "ARN",
    "fluesse": []
  },
  {
    "name": "Lüneburg",
    "lat": 53.25122,
    "lon": 10.41548,
    "bundesland": "Niedersachsen",
    "einwohner": 74785,
    "flaeche": 70.5,
    "hoehe": 12,
    "kfz": "LUN",
    "fluesse": []
  },
  {
    "name": "Detmold",
    "lat": 51.93855,
    "lon": 8.87318,
    "bundesland": "Nordrhein-Westfalen",
    "einwohner": 74278,
    "flaeche": 129.39,
    "hoehe": 135,
    "kfz": "DTL",
    "fluesse": []
  },
  {
    "name": "Brandenburg an der Havel",
    "lat": 52.41667,
    "lon": 12.55,
    "bundesland": "Brandenburg",
    "einwohner": 74113,
    "flaeche": 229.73,
    "hoehe": 57,
    "kfz": "BRB",
    "fluesse": []
  },
  {
    "name": "Marburg",
    "lat": 50.80904,
    "lon": 8.77069,
    "bundesland": "Hessen",
    "einwohner": 73544,
    "flaeche": 123.91,
    "hoehe": 220,
    "kfz": "MR",
    "fluesse": []
  },
  {
    "name": "Castrop-Rauxel",
    "lat": 51.55657,
    "lon": 7.31155,
    "bundesland": "Nordrhein-Westfalen",
    "einwohner": 73282,
    "flaeche": 51.68,
    "hoehe": 83,
    "kfz": "",
    "fluesse": []
  },
  {
    "name": "Bocholt",
    "lat": 51.83879,
    "lon": 6.61531,
    "bundesland": "Nordrhein-Westfalen",
    "einwohner": 73257,
    "flaeche": 119.4,
    "hoehe": 31,
    "kfz": "BOC",
    "fluesse": []
  },
  {
    "name": "Aschaffenburg",
    "lat": 49.97704,
    "lon": 9.15214,
    "bundesland": "Bayern",
    "einwohner": 73091,
    "flaeche": 62.45,
    "hoehe": 140,
    "kfz": "AB",
    "fluesse": []
  },
  {
    "name": "Bayreuth",
    "lat": 49.94782,
    "lon": 11.57893,
    "bundesland": "Bayern",
    "einwohner": 72940,
    "flaeche": 66.89,
    "hoehe": 338,
    "kfz": "BYL",
    "fluesse": []
  },
  {
    "name": "Landshut",
    "lat": 48.52961,
    "lon": 12.16179,
    "bundesland": "Bayern",
    "einwohner": 71863,
    "flaeche": 65.83,
    "hoehe": 488,
    "kfz": "LA",
    "fluesse": []
  },
  {
    "name": "Lüdenscheid",
    "lat": 51.21977,
    "lon": 7.6273,
    "bundesland": "Nordrhein-Westfalen",
    "einwohner": 71212,
    "flaeche": 87.02,
    "hoehe": 410,
    "kfz": "MK",
    "fluesse": []
  },
  {
    "name": "Lippstadt",
    "lat": 51.67369,
    "lon": 8.34482,
    "bundesland": "Nordrhein-Westfalen",
    "einwohner": 68739,
    "flaeche": 113.68,
    "hoehe": 81,
    "kfz": "SOE",
    "fluesse": []
  },
  {
    "name": "Kempten (Allgäu)",
    "lat": 47.72674,
    "lon": 10.31389,
    "bundesland": "Bayern",
    "einwohner": 67645,
    "flaeche": 63.28,
    "hoehe": 681,
    "kfz": "KE",
    "fluesse": []
  },
  {
    "name": "Aalen",
    "lat": 48.83777,
    "lon": 10.0933,
    "bundesland": "Baden-Württemberg",
    "einwohner": 67621,
    "flaeche": 146.58,
    "hoehe": 433,
    "kfz": "AA",
    "fluesse": []
  },
  {
    "name": "Herford",
    "lat": 52.11457,
    "lon": 8.67343,
    "bundesland": "Nordrhein-Westfalen",
    "einwohner": 67503,
    "flaeche": 79.15,
    "hoehe": 69,
    "kfz": "",
    "fluesse": []
  },
  {
    "name": "Neuwied",
    "lat": 50.4336,
    "lon": 7.47057,
    "bundesland": "Rheinland-Pfalz",
    "einwohner": 67083,
    "flaeche": 86.5,
    "hoehe": 67,
    "kfz": "NR",
    "fluesse": []
  },
  {
    "name": "Dinslaken",
    "lat": 51.56227,
    "lon": 6.7434,
    "bundesland": "Nordrhein-Westfalen",
    "einwohner": 66993,
    "flaeche": 47.66,
    "hoehe": 34,
    "kfz": "DIN",
    "fluesse": []
  },
  {
    "name": "Celle",
    "lat": 52.62264,
    "lon": 10.08047,
    "bundesland": "Niedersachsen",
    "einwohner": 66834,
    "flaeche": 176.02,
    "hoehe": 45,
    "kfz": "CE",
    "fluesse": []
  },
  {
    "name": "Kerpen",
    "lat": 50.86991,
    "lon": 6.69691,
    "bundesland": "Nordrhein-Westfalen",
    "einwohner": 66585,
    "flaeche": 113.96,
    "hoehe": 84,
    "kfz": "",
    "fluesse": []
  },
  {
    "name": "Grevenbroich",
    "lat": 51.09102,
    "lon": 6.5827,
    "bundesland": "Nordrhein-Westfalen",
    "einwohner": 65983,
    "flaeche": 102.52,
    "hoehe": 52,
    "kfz": "",
    "fluesse": []
  },
  {
    "name": "Weimar",
    "lat": 50.9803,
    "lon": 11.32903,
    "bundesland": "Thüringen",
    "einwohner": 65954,
    "flaeche": 84.47,
    "hoehe": 220,
    "kfz": "AP",
    "fluesse": []
  },
  {
    "name": "Rüsselsheim am Main",
    "lat": 49.98955,
    "lon": 8.42251,
    "bundesland": "Hessen",
    "einwohner": 65627,
    "flaeche": 58.29,
    "hoehe": 89,
    "kfz": "RÜN",
    "fluesse": []
  },
  {
    "name": "Plauen",
    "lat": 50.4973,
    "lon": 12.13782,
    "bundesland": "Sachsen",
    "einwohner": 65599,
    "flaeche": 102.11,
    "hoehe": 361,
    "kfz": "PL",
    "fluesse": []
  },
  {
    "name": "Fulda",
    "lat": 50.55162,
    "lon": 9.67518,
    "bundesland": "Hessen",
    "einwohner": 65434,
    "flaeche": 104.05,
    "hoehe": 265,
    "kfz": "FB",
    "fluesse": []
  },
  {
    "name": "Rosenheim",
    "lat": 47.85637,
    "lon": 12.12247,
    "bundesland": "Bayern",
    "einwohner": 65274,
    "flaeche": 37.22,
    "hoehe": 448,
    "kfz": "RSO",
    "fluesse": []
  },
  {
    "name": "Schwäbisch Gmünd",
    "lat": 48.79947,
    "lon": 9.79809,
    "bundesland": "Baden-Württemberg",
    "einwohner": 64416,
    "flaeche": 113.81,
    "hoehe": 325,
    "kfz": "SWT",
    "fluesse": []
  },
  {
    "name": "Dormagen",
    "lat": 51.09683,
    "lon": 6.83167,
    "bundesland": "Nordrhein-Westfalen",
    "einwohner": 63799,
    "flaeche": 85.5,
    "hoehe": 45,
    "kfz": "",
    "fluesse": []
  },
  {
    "name": "Offenburg",
    "lat": 48.47377,
    "lon": 7.94495,
    "bundesland": "Baden-Württemberg",
    "einwohner": 62993,
    "flaeche": 78.37,
    "hoehe": 163,
    "kfz": "OG",
    "fluesse": []
  },
  {
    "name": "Friedrichshafen",
    "lat": 47.65689,
    "lon": 9.47554,
    "bundesland": "Baden-Württemberg",
    "einwohner": 62796,
    "flaeche": 69.93,
    "hoehe": 405,
    "kfz": "FN",
    "fluesse": []
  },
  {
    "name": "Neu-Ulm",
    "lat": 48.39279,
    "lon": 10.01112,
    "bundesland": "Bayern",
    "einwohner": 62641,
    "flaeche": 80.95,
    "hoehe": 474,
    "kfz": "NU",
    "fluesse": []
  },
  {
    "name": "Hürth",
    "lat": 50.87079,
    "lon": 6.86761,
    "bundesland": "Nordrhein-Westfalen",
    "einwohner": 62160,
    "flaeche": 51.22,
    "hoehe": 91,
    "kfz": "",
    "fluesse": []
  },
  {
    "name": "Bergheim",
    "lat": 50.95572,
    "lon": 6.63986,
    "bundesland": "Nordrhein-Westfalen",
    "einwohner": 61611,
    "flaeche": 96.34,
    "hoehe": 67,
    "kfz": "",
    "fluesse": []
  },
  {
    "name": "Sindelfingen",
    "lat": 48.7,
    "lon": 9.01667,
    "bundesland": "Baden-Württemberg",
    "einwohner": 61422,
    "flaeche": 50.83,
    "hoehe": 468,
    "kfz": "",
    "fluesse": []
  },
  {
    "name": "Herten",
    "lat": 51.59638,
    "lon": 7.14387,
    "bundesland": "Nordrhein-Westfalen",
    "einwohner": 60941,
    "flaeche": 37.33,
    "hoehe": 68,
    "kfz": "",
    "fluesse": []
  },
  {
    "name": "Wesel",
    "lat": 51.6669,
    "lon": 6.62037,
    "bundesland": "Nordrhein-Westfalen",
    "einwohner": 60785,
    "flaeche": 122.56,
    "hoehe": 23,
    "kfz": "WZL",
    "fluesse": []
  },
  {
    "name": "Neubrandenburg",
    "lat": 53.55735,
    "lon": 13.26105,
    "bundesland": "Mecklenburg-Vorpommern",
    "einwohner": 60344,
    "flaeche": 86.12,
    "hoehe": 15,
    "kfz": "MSE",
    "fluesse": []
  },
  {
    "name": "Euskirchen",
    "lat": 50.66057,
    "lon": 6.78722,
    "bundesland": "Nordrhein-Westfalen",
    "einwohner": 60021,
    "flaeche": 139.49,
    "hoehe": 164,
    "kfz": "EU",
    "fluesse": []
  },
  {
    "name": "Langenfeld (Rheinland)",
    "lat": 51.10821,
    "lon": 6.94831,
    "bundesland": "Nordrhein-Westfalen",
    "einwohner": 59975,
    "flaeche": 41.15,
    "hoehe": 51,
    "kfz": "",
    "fluesse": []
  },
  {
    "name": "Garbsen",
    "lat": 52.41371,
    "lon": 9.5899,
    "bundesland": "Niedersachsen",
    "einwohner": 59903,
    "flaeche": 79.49,
    "hoehe": 50,
    "kfz": "",
    "fluesse": []
  },
  {
    "name": "Göppingen",
    "lat": 48.70354,
    "lon": 9.65209,
    "bundesland": "Baden-Württemberg",
    "einwohner": 58937,
    "flaeche": 59.21,
    "hoehe": 323,
    "kfz": "GP",
    "fluesse": []
  },
  {
    "name": "Unna",
    "lat": 51.53795,
    "lon": 7.68969,
    "bundesland": "Nordrhein-Westfalen",
    "einwohner": 58333,
    "flaeche": 88.56,
    "hoehe": 103,
    "kfz": "UNZ",
    "fluesse": []
  },
  {
    "name": "Hameln",
    "lat": 52.10397,
    "lon": 9.35623,
    "bundesland": "Niedersachsen",
    "einwohner": 58244,
    "flaeche": 102.53,
    "hoehe": 74,
    "kfz": "HM",
    "fluesse": []
  },
  {
    "name": "Stolberg (Rhld.)",
    "lat": 50.77368,
    "lon": 6.22595,
    "bundesland": "Nordrhein-Westfalen",
    "einwohner": 57684,
    "flaeche": 98.48,
    "hoehe": 185,
    "kfz": "",
    "fluesse": []
  },
  {
    "name": "Eschweiler",
    "lat": 50.81854,
    "lon": 6.27184,
    "bundesland": "Nordrhein-Westfalen",
    "einwohner": 57534,
    "flaeche": 75.75,
    "hoehe": 142,
    "kfz": "",
    "fluesse": []
  },
  {
    "name": "Waiblingen",
    "lat": 48.83241,
    "lon": 9.31641,
    "bundesland": "Baden-Württemberg",
    "einwohner": 57313,
    "flaeche": 42.75,
    "hoehe": 233,
    "kfz": "",
    "fluesse": []
  },
  {
    "name": "Frankfurt (Oder)",
    "lat": 52.34714,
    "lon": 14.55062,
    "bundesland": "Brandenburg",
    "einwohner": 57107,
    "flaeche": 147.85,
    "hoehe": 28,
    "kfz": "FF",
    "fluesse": []
  },
  {
    "name": "Meerbusch",
    "lat": 51.25268,
    "lon": 6.68807,
    "bundesland": "Nordrhein-Westfalen",
    "einwohner": 57078,
    "flaeche": 64.4,
    "hoehe": 39,
    "kfz": "",
    "fluesse": []
  },
  {
    "name": "Nordhorn",
    "lat": 52.43081,
    "lon": 7.06833,
    "bundesland": "Niedersachsen",
    "einwohner": 56973,
    "flaeche": 149.86,
    "hoehe": 25,
    "kfz": "NOH",
    "fluesse": []
  },
  {
    "name": "Baden-Baden",
    "lat": 48.7606,
    "lon": 8.23975,
    "bundesland": "Baden-Württemberg",
    "einwohner": 56881,
    "flaeche": 140.19,
    "hoehe": 169,
    "kfz": "BAD",
    "fluesse": []
  },
  {
    "name": "Bad Homburg v. d. Höhe",
    "lat": 50.22683,
    "lon": 8.61816,
    "bundesland": "Hessen",
    "einwohner": 56688,
    "flaeche": 51.14,
    "hoehe": 186,
    "kfz": "",
    "fluesse": []
  },
  {
    "name": "Sankt Augustin",
    "lat": 50.77538,
    "lon": 7.197,
    "bundesland": "Nordrhein-Westfalen",
    "einwohner": 56521,
    "flaeche": 34.22,
    "hoehe": 69,
    "kfz": "",
    "fluesse": []
  },
  {
    "name": "Lingen (Ems)",
    "lat": 52.52143,
    "lon": 7.31845,
    "bundesland": "Niedersachsen",
    "einwohner": 56498,
    "flaeche": 176.19,
    "hoehe": 25,
    "kfz": "",
    "fluesse": []
  },
  {
    "name": "Pulheim",
    "lat": 50.99965,
    "lon": 6.80632,
    "bundesland": "Nordrhein-Westfalen",
    "einwohner": 56150,
    "flaeche": 72.15,
    "hoehe": 47,
    "kfz": "",
    "fluesse": []
  },
  {
    "name": "Greifswald",
    "lat": 54.08905,
    "lon": 13.40244,
    "bundesland": "Mecklenburg-Vorpommern",
    "einwohner": 56092,
    "flaeche": 50.81,
    "hoehe": 2,
    "kfz": "HGW",
    "fluesse": []
  },
  {
    "name": "Görlitz",
    "lat": 51.15518,
    "lon": 14.98853,
    "bundesland": "Sachsen",
    "einwohner": 55186,
    "flaeche": 67.53,
    "hoehe": 200,
    "kfz": "GR",
    "fluesse": [
      "Neiße"
    ]
  },
  {
    "name": "Hilden",
    "lat": 51.16818,
    "lon": 6.93093,
    "bundesland": "Nordrhein-Westfalen",
    "einwohner": 55157,
    "flaeche": 25.95,
    "hoehe": 52,
    "kfz": "",
    "fluesse": []
  },
  {
    "name": "Wetzlar",
    "lat": 50.56109,
    "lon": 8.50495,
    "bundesland": "Hessen",
    "einwohner": 54665,
    "flaeche": 75.65,
    "hoehe": 169,
    "kfz": "",
    "fluesse": []
  },
  {
    "name": "Schweinfurt",
    "lat": 50.04937,
    "lon": 10.22175,
    "bundesland": "Bayern",
    "einwohner": 54481,
    "flaeche": 35.7,
    "hoehe": 250,
    "kfz": "SW",
    "fluesse": []
  },
  {
    "name": "Bad Kreuznach",
    "lat": 49.8414,
    "lon": 7.86713,
    "bundesland": "Rheinland-Pfalz",
    "einwohner": 54168,
    "flaeche": 55.56,
    "hoehe": 109,
    "kfz": "KH",
    "fluesse": []
  },
  {
    "name": "Langenhagen",
    "lat": 52.44758,
    "lon": 9.73741,
    "bundesland": "Niedersachsen",
    "einwohner": 54142,
    "flaeche": 71.97,
    "hoehe": 54,
    "kfz": "",
    "fluesse": []
  },
  {
    "name": "Stralsund",
    "lat": 54.30911,
    "lon": 13.0818,
    "bundesland": "Mecklenburg-Vorpommern",
    "einwohner": 54094,
    "flaeche": 54.59,
    "hoehe": 4,
    "kfz": "VR",
    "fluesse": []
  },
  {
    "name": "Bad Salzuflen",
    "lat": 52.0862,
    "lon": 8.74434,
    "bundesland": "Nordrhein-Westfalen",
    "einwohner": 53958,
    "flaeche": 100.05,
    "hoehe": 82,
    "kfz": "",
    "fluesse": []
  },
  {
    "name": "Hattingen",
    "lat": 51.39894,
    "lon": 7.18557,
    "bundesland": "Nordrhein-Westfalen",
    "einwohner": 53044,
    "flaeche": 71.67,
    "hoehe": 100,
    "kfz": "",
    "fluesse": []
  },
  {
    "name": "Passau",
    "lat": 48.5665,
    "lon": 13.43122,
    "bundesland": "Bayern",
    "einwohner": 53039,
    "flaeche": 69.56,
    "hoehe": 366,
    "kfz": "PAS",
    "fluesse": []
  },
  {
    "name": "Kleve",
    "lat": 51.78826,
    "lon": 6.13865,
    "bundesland": "Nordrhein-Westfalen",
    "einwohner": 53028,
    "flaeche": 97.76,
    "hoehe": 29,
    "kfz": "KLE",
    "fluesse": []
  },
  {
    "name": "Neustadt an der Weinstraße",
    "lat": 49.35009,
    "lon": 8.13886,
    "bundesland": "Rheinland-Pfalz",
    "einwohner": 52945,
    "flaeche": 117.09,
    "hoehe": 144,
    "kfz": "NW",
    "fluesse": []
  },
  {
    "name": "Ahlen",
    "lat": 51.76338,
    "lon": 7.8887,
    "bundesland": "Nordrhein-Westfalen",
    "einwohner": 52666,
    "flaeche": 123.13,
    "hoehe": 82,
    "kfz": "",
    "fluesse": []
  },
  {
    "name": "Wolfenbüttel",
    "lat": 52.16442,
    "lon": 10.54095,
    "bundesland": "Niedersachsen",
    "einwohner": 52604,
    "flaeche": 78.74,
    "hoehe": 80,
    "kfz": "WF",
    "fluesse": []
  },
  {
    "name": "Frechen",
    "lat": 50.91485,
    "lon": 6.8118,
    "bundesland": "Nordrhein-Westfalen",
    "einwohner": 52309,
    "flaeche": 45.06,
    "hoehe": 73,
    "kfz": "",
    "fluesse": []
  },
  {
    "name": "Menden (Sauerland)",
    "lat": 51.44337,
    "lon": 7.77825,
    "bundesland": "Nordrhein-Westfalen",
    "einwohner": 52255,
    "flaeche": 86.1,
    "hoehe": 165,
    "kfz": "",
    "fluesse": []
  },
  {
    "name": "Ibbenbüren",
    "lat": 52.27712,
    "lon": 7.72428,
    "bundesland": "Nordrhein-Westfalen",
    "einwohner": 51803,
    "flaeche": 108.87,
    "hoehe": 80,
    "kfz": "",
    "fluesse": []
  },
  {
    "name": "Böblingen",
    "lat": 48.68212,
    "lon": 9.01171,
    "bundesland": "Baden-Württemberg",
    "einwohner": 51483,
    "flaeche": 39.04,
    "hoehe": 442,
    "kfz": "BB",
    "fluesse": []
  },
  {
    "name": "Lörrach",
    "lat": 47.61497,
    "lon": 7.66457,
    "bundesland": "Baden-Württemberg",
    "einwohner": 51349,
    "flaeche": 39.37,
    "hoehe": 308,
    "kfz": "LÖ",
    "fluesse": []
  },
  {
    "name": "Elmshorn",
    "lat": 53.74912,
    "lon": 9.66176,
    "bundesland": "Schleswig-Holstein",
    "einwohner": 51342,
    "flaeche": 21.36,
    "hoehe": 8,
    "kfz": "PI",
    "fluesse": []
  },
  {
    "name": "Gummersbach",
    "lat": 51.02608,
    "lon": 7.56473,
    "bundesland": "Nordrhein-Westfalen",
    "einwohner": 51290,
    "flaeche": 95.41,
    "hoehe": 253,
    "kfz": "",
    "fluesse": []
  },
  {
    "name": "Peine",
    "lat": 52.31928,
    "lon": 10.2352,
    "bundesland": "Niedersachsen",
    "einwohner": 50987,
    "flaeche": 119.84,
    "hoehe": 68,
    "kfz": "PW",
    "fluesse": []
  },
  {
    "name": "Lahr/Schwarzwald",
    "lat": 48.34042,
    "lon": 7.86886,
    "bundesland": "Baden-Württemberg",
    "einwohner": 50775,
    "flaeche": 69.84,
    "hoehe": 176,
    "kfz": "LR",
    "fluesse": []
  },
  {
    "name": "Rastatt",
    "lat": 48.85851,
    "lon": 8.20965,
    "bundesland": "Baden-Württemberg",
    "einwohner": 50741,
    "flaeche": 58.98,
    "hoehe": 126,
    "kfz": "RAR",
    "fluesse": []
  },
  {
    "name": "Ravensburg",
    "lat": 47.78198,
    "lon": 9.61062,
    "bundesland": "Baden-Württemberg",
    "einwohner": 50628,
    "flaeche": 92.05,
    "hoehe": 447,
    "kfz": "RV",
    "fluesse": []
  },
  {
    "name": "Bad Oeynhausen",
    "lat": 52.20699,
    "lon": 8.80365,
    "bundesland": "Nordrhein-Westfalen",
    "einwohner": 50620,
    "flaeche": 64.83,
    "hoehe": 58,
    "kfz": "",
    "fluesse": []
  },
  {
    "name": "Heidenheim an der Brenz",
    "lat": 48.67798,
    "lon": 10.15162,
    "bundesland": "Baden-Württemberg",
    "einwohner": 50618,
    "flaeche": 107.09,
    "hoehe": 494,
    "kfz": "HDB",
    "fluesse": []
  },
  {
    "name": "Gronau (Westf.)",
    "lat": 52.21099,
    "lon": 7.02238,
    "bundesland": "Nordrhein-Westfalen",
    "einwohner": 50547,
    "flaeche": 78.82,
    "hoehe": 42,
    "kfz": "",
    "fluesse": []
  },
  {
    "name": "Cuxhaven",
    "lat": 53.86828,
    "lon": 8.69902,
    "bundesland": "Niedersachsen",
    "einwohner": 49697,
    "flaeche": 161.93,
    "hoehe": 3,
    "kfz": "CUX",
    "fluesse": []
  },
  {
    "name": "Speyer",
    "lat": 49.32083,
    "lon": 8.43111,
    "bundesland": "Rheinland-Pfalz",
    "einwohner": 49564,
    "flaeche": 42.71,
    "hoehe": 111,
    "kfz": "SPD",
    "fluesse": []
  },
  {
    "name": "Leonberg",
    "lat": 48.8,
    "lon": 9.01667,
    "bundesland": "Baden-Württemberg",
    "einwohner": 49480,
    "flaeche": 48.73,
    "hoehe": 382,
    "kfz": "",
    "fluesse": []
  },
  {
    "name": "Willich",
    "lat": 51.26371,
    "lon": 6.54734,
    "bundesland": "Nordrhein-Westfalen",
    "einwohner": 49413,
    "flaeche": 67.8,
    "hoehe": 43,
    "kfz": "",
    "fluesse": []
  },
  {
    "name": "Emden",
    "lat": 53.36592,
    "lon": 7.20846,
    "bundesland": "Niedersachsen",
    "einwohner": 49202,
    "flaeche": 112.34,
    "hoehe": 2,
    "kfz": "EMD",
    "fluesse": []
  },
  {
    "name": "Bergkamen",
    "lat": 51.61633,
    "lon": 7.64451,
    "bundesland": "Nordrhein-Westfalen",
    "einwohner": 49143,
    "flaeche": 44.9,
    "hoehe": 67,
    "kfz": "",
    "fluesse": []
  },
  {
    "name": "Oranienburg",
    "lat": 52.75577,
    "lon": 13.24197,
    "bundesland": "Brandenburg",
    "einwohner": 49122,
    "flaeche": 163.69,
    "hoehe": 35,
    "kfz": "OR",
    "fluesse": []
  },
  {
    "name": "Straubing",
    "lat": 48.88126,
    "lon": 12.57385,
    "bundesland": "Bayern",
    "einwohner": 49002,
    "flaeche": 67.59,
    "hoehe": 333,
    "kfz": "SR",
    "fluesse": []
  },
  {
    "name": "Freising",
    "lat": 48.40351,
    "lon": 11.74876,
    "bundesland": "Bayern",
    "einwohner": 48928,
    "flaeche": 88.59,
    "hoehe": 448,
    "kfz": "FS",
    "fluesse": []
  },
  {
    "name": "Alsdorf",
    "lat": 50.87673,
    "lon": 6.16399,
    "bundesland": "Nordrhein-Westfalen",
    "einwohner": 48810,
    "flaeche": 31.68,
    "hoehe": 167,
    "kfz": "",
    "fluesse": []
  },
  {
    "name": "Erftstadt",
    "lat": 50.81481,
    "lon": 6.79387,
    "bundesland": "Nordrhein-Westfalen",
    "einwohner": 48772,
    "flaeche": 119.89,
    "hoehe": 94,
    "kfz": "BM",
    "fluesse": []
  },
  {
    "name": "Stade",
    "lat": 51.05842,
    "lon": 7.84309,
    "bundesland": "Niedersachsen",
    "einwohner": 48633,
    "flaeche": 110.07,
    "hoehe": 331,
    "kfz": "",
    "fluesse": []
  },
  {
    "name": "Herzogenrath",
    "lat": 50.86874,
    "lon": 6.09317,
    "bundesland": "Nordrhein-Westfalen",
    "einwohner": 48574,
    "flaeche": 33.38,
    "hoehe": 106,
    "kfz": "",
    "fluesse": []
  },
  {
    "name": "Landau in der Pfalz",
    "lat": 49.19844,
    "lon": 8.11692,
    "bundesland": "Rheinland-Pfalz",
    "einwohner": 48209,
    "flaeche": 82.94,
    "hoehe": 144,
    "kfz": "LD",
    "fluesse": []
  },
  {
    "name": "Bornheim",
    "lat": 50.76313,
    "lon": 6.99089,
    "bundesland": "Nordrhein-Westfalen",
    "einwohner": 48203,
    "flaeche": 82.69,
    "hoehe": 62,
    "kfz": "",
    "fluesse": []
  },
  {
    "name": "Hennef (Sieg)",
    "lat": 50.77555,
    "lon": 7.28308,
    "bundesland": "Nordrhein-Westfalen",
    "einwohner": 48188,
    "flaeche": 105.89,
    "hoehe": 68,
    "kfz": "SU",
    "fluesse": []
  },
  {
    "name": "Frankenthal (Pfalz)",
    "lat": 49.53414,
    "lon": 8.35357,
    "bundesland": "Rheinland-Pfalz",
    "einwohner": 48140,
    "flaeche": 43.88,
    "hoehe": 99,
    "kfz": "",
    "fluesse": []
  },
  {
    "name": "Rheda-Wiedenbrück",
    "lat": 51.84967,
    "lon": 8.30017,
    "bundesland": "Nordrhein-Westfalen",
    "einwohner": 48030,
    "flaeche": 86.72,
    "hoehe": 72,
    "kfz": "",
    "fluesse": []
  },
  {
    "name": "Dülmen",
    "lat": 51.83149,
    "lon": 7.28075,
    "bundesland": "Nordrhein-Westfalen",
    "einwohner": 47989,
    "flaeche": 184.83,
    "hoehe": 72,
    "kfz": "COE",
    "fluesse": []
  },
  {
    "name": "Bruchsal",
    "lat": 49.12426,
    "lon": 8.59804,
    "bundesland": "Baden-Württemberg",
    "einwohner": 47784,
    "flaeche": 93.04,
    "hoehe": 118,
    "kfz": "",
    "fluesse": []
  },
  {
    "name": "Soest",
    "lat": 51.57558,
    "lon": 8.10619,
    "bundesland": "Nordrhein-Westfalen",
    "einwohner": 47776,
    "flaeche": 85.81,
    "hoehe": 95,
    "kfz": "",
    "fluesse": []
  },
  {
    "name": "Singen (Hohentwiel)",
    "lat": 47.75935,
    "lon": 8.8403,
    "bundesland": "Baden-Württemberg",
    "einwohner": 47621,
    "flaeche": 61.77,
    "hoehe": 436,
    "kfz": "",
    "fluesse": []
  },
  {
    "name": "Goslar",
    "lat": 51.90425,
    "lon": 10.42766,
    "bundesland": "Niedersachsen",
    "einwohner": 47419,
    "flaeche": 163.88,
    "hoehe": 270,
    "kfz": "GS",
    "fluesse": []
  },
  {
    "name": "Neunkirchen",
    "lat": 49.34449,
    "lon": 7.18045,
    "bundesland": "Saarland",
    "einwohner": 47344,
    "flaeche": 75.26,
    "hoehe": 289,
    "kfz": "NK",
    "fluesse": []
  },
  {
    "name": "Dachau",
    "lat": 48.26,
    "lon": 11.43402,
    "bundesland": "Bayern",
    "einwohner": 47138,
    "flaeche": 34.96,
    "hoehe": 502,
    "kfz": "DAH",
    "fluesse": []
  },
  {
    "name": "Fellbach",
    "lat": 48.80912,
    "lon": 9.27697,
    "bundesland": "Baden-Württemberg",
    "einwohner": 47120,
    "flaeche": 27.71,
    "hoehe": 287,
    "kfz": "",
    "fluesse": []
  },
  {
    "name": "Albstadt",
    "lat": 48.21644,
    "lon": 9.02596,
    "bundesland": "Baden-Württemberg",
    "einwohner": 46950,
    "flaeche": 134.4,
    "hoehe": 733,
    "kfz": "BL",
    "fluesse": []
  },
  {
    "name": "Hof",
    "lat": 50.31297,
    "lon": 11.91261,
    "bundesland": "Bayern",
    "einwohner": 46778,
    "flaeche": 58.02,
    "hoehe": 491,
    "kfz": "HO",
    "fluesse": []
  },
  {
    "name": "Oberursel (Taunus)",
    "lat": 50.20731,
    "lon": 8.57747,
    "bundesland": "Hessen",
    "einwohner": 46736,
    "flaeche": 45.34,
    "hoehe": 216,
    "kfz": "",
    "fluesse": []
  },
  {
    "name": "Melle",
    "lat": 52.20197,
    "lon": 8.33826,
    "bundesland": "Niedersachsen",
    "einwohner": 46436,
    "flaeche": 253.95,
    "hoehe": 82,
    "kfz": "MEL",
    "fluesse": []
  },
  {
    "name": "Gotha",
    "lat": 50.94823,
    "lon": 10.70193,
    "bundesland": "Thüringen",
    "einwohner": 46400,
    "flaeche": 69.58,
    "hoehe": 305,
    "kfz": "GOR",
    "fluesse": []
  },
  {
    "name": "Bünde",
    "lat": 52.19837,
    "lon": 8.58644,
    "bundesland": "Nordrhein-Westfalen",
    "einwohner": 46365,
    "flaeche": 59.3,
    "hoehe": 74,
    "kfz": "",
    "fluesse": []
  },
  {
    "name": "Filderstadt",
    "lat": 48.65698,
    "lon": 9.22049,
    "bundesland": "Baden-Württemberg",
    "einwohner": 46243,
    "flaeche": 38.55,
    "hoehe": 393,
    "kfz": "",
    "fluesse": []
  },
  {
    "name": "Kaufbeuren",
    "lat": 47.88238,
    "lon": 10.62192,
    "bundesland": "Bayern",
    "einwohner": 46193,
    "flaeche": 40.02,
    "hoehe": 672,
    "kfz": "KFB",
    "fluesse": []
  },
  {
    "name": "Weinheim",
    "lat": 49.54887,
    "lon": 8.66697,
    "bundesland": "Baden-Württemberg",
    "einwohner": 45852,
    "flaeche": 58.11,
    "hoehe": 118,
    "kfz": "",
    "fluesse": []
  },
  {
    "name": "Schwerte",
    "lat": 51.44387,
    "lon": 7.5675,
    "bundesland": "Nordrhein-Westfalen",
    "einwohner": 45821,
    "flaeche": 56.23,
    "hoehe": 124,
    "kfz": "",
    "fluesse": []
  },
  {
    "name": "Falkensee",
    "lat": 52.56014,
    "lon": 13.0927,
    "bundesland": "Brandenburg",
    "einwohner": 45720,
    "flaeche": 43.34,
    "hoehe": 31,
    "kfz": "",
    "fluesse": []
  },
  {
    "name": "Rottenburg am Neckar",
    "lat": 48.47629,
    "lon": 8.93528,
    "bundesland": "Baden-Württemberg",
    "einwohner": 45677,
    "flaeche": 142.27,
    "hoehe": 349,
    "kfz": "",
    "fluesse": []
  },
  {
    "name": "Brühl",
    "lat": 50.82928,
    "lon": 6.90499,
    "bundesland": "Nordrhein-Westfalen",
    "einwohner": 45555,
    "flaeche": 36.12,
    "hoehe": 68,
    "kfz": "BRL",
    "fluesse": []
  },
  {
    "name": "Erkelenz",
    "lat": 51.07947,
    "lon": 6.31531,
    "bundesland": "Nordrhein-Westfalen",
    "einwohner": 45315,
    "flaeche": 117.34,
    "hoehe": 99,
    "kfz": "",
    "fluesse": []
  },
  {
    "name": "Rodgau",
    "lat": 50.02627,
    "lon": 8.88588,
    "bundesland": "Hessen",
    "einwohner": 45277,
    "flaeche": 65.04,
    "hoehe": 129,
    "kfz": "",
    "fluesse": []
  },
  {
    "name": "Wittenberg",
    "lat": 51.8661,
    "lon": 12.64973,
    "bundesland": "Sachsen-Anhalt",
    "einwohner": 45249,
    "flaeche": 241.77,
    "hoehe": 72,
    "kfz": "WB",
    "fluesse": []
  },
  {
    "name": "Pinneberg",
    "lat": 53.65887,
    "lon": 9.79698,
    "bundesland": "Schleswig-Holstein",
    "einwohner": 44865,
    "flaeche": 21.54,
    "hoehe": 5,
    "kfz": "PND",
    "fluesse": []
  },
  {
    "name": "Neustadt am Rübenberge",
    "lat": 52.50462,
    "lon": 9.45871,
    "bundesland": "Niedersachsen",
    "einwohner": 44668,
    "flaeche": 358.96,
    "hoehe": 42,
    "kfz": "",
    "fluesse": []
  },
  {
    "name": "Bernau bei Berlin",
    "lat": 52.67982,
    "lon": 13.58708,
    "bundesland": "Brandenburg",
    "einwohner": 44597,
    "flaeche": 104.19,
    "hoehe": 72,
    "kfz": "",
    "fluesse": []
  },
  {
    "name": "Lehrte",
    "lat": 52.37193,
    "lon": 9.97919,
    "bundesland": "Niedersachsen",
    "einwohner": 44255,
    "flaeche": 127.67,
    "hoehe": 60,
    "kfz": "",
    "fluesse": []
  },
  {
    "name": "Memmingen",
    "lat": 47.98372,
    "lon": 10.18527,
    "bundesland": "Bayern",
    "einwohner": 44192,
    "flaeche": 70.11,
    "hoehe": 598,
    "kfz": "MN",
    "fluesse": []
  },
  {
    "name": "Erkrath",
    "lat": 51.22235,
    "lon": 6.90831,
    "bundesland": "Nordrhein-Westfalen",
    "einwohner": 43706,
    "flaeche": 26.88,
    "hoehe": 56,
    "kfz": "ERK",
    "fluesse": []
  },
  {
    "name": "Monheim am Rhein",
    "lat": 51.09162,
    "lon": 6.89217,
    "bundesland": "Nordrhein-Westfalen",
    "einwohner": 43630,
    "flaeche": 23.05,
    "hoehe": 44,
    "kfz": "",
    "fluesse": []
  },
  {
    "name": "Bietigheim-Bissingen",
    "lat": 48.94407,
    "lon": 9.11755,
    "bundesland": "Baden-Württemberg",
    "einwohner": 43556,
    "flaeche": 31.29,
    "hoehe": 226,
    "kfz": "",
    "fluesse": []
  },
  {
    "name": "Homburg",
    "lat": 49.32637,
    "lon": 7.33867,
    "bundesland": "Saarland",
    "einwohner": 43382,
    "flaeche": 82.61,
    "hoehe": 242,
    "kfz": "HOM",
    "fluesse": []
  },
  {
    "name": "Wismar",
    "lat": 53.89218,
    "lon": 11.45563,
    "bundesland": "Mecklenburg-Vorpommern",
    "einwohner": 43329,
    "flaeche": 41.73,
    "hoehe": 1,
    "kfz": "WIS",
    "fluesse": []
  },
  {
    "name": "Kaarst",
    "lat": 51.22929,
    "lon": 6.61883,
    "bundesland": "Nordrhein-Westfalen",
    "einwohner": 43295,
    "flaeche": 37.39,
    "hoehe": 42,
    "kfz": "",
    "fluesse": []
  },
  {
    "name": "Heinsberg",
    "lat": 51.06358,
    "lon": 6.0998,
    "bundesland": "Nordrhein-Westfalen",
    "einwohner": 43163,
    "flaeche": 92.21,
    "hoehe": 39,
    "kfz": "HS",
    "fluesse": []
  },
  {
    "name": "Borken",
    "lat": 51.84382,
    "lon": 6.85774,
    "bundesland": "Nordrhein-Westfalen",
    "einwohner": 43035,
    "flaeche": 153.24,
    "hoehe": 48,
    "kfz": "BOR",
    "fluesse": []
  },
  {
    "name": "Gifhorn",
    "lat": 52.47774,
    "lon": 10.5511,
    "bundesland": "Niedersachsen",
    "einwohner": 42726,
    "flaeche": 105.39,
    "hoehe": 58,
    "kfz": "",
    "fluesse": []
  },
  {
    "name": "Aurich",
    "lat": 53.46963,
    "lon": 7.48239,
    "bundesland": "Niedersachsen",
    "einwohner": 42612,
    "flaeche": 197.29,
    "hoehe": 10,
    "kfz": "AUR",
    "fluesse": []
  },
  {
    "name": "Schwäbisch Hall",
    "lat": 49.11127,
    "lon": 9.73908,
    "bundesland": "Baden-Württemberg",
    "einwohner": 42598,
    "flaeche": 104.19,
    "hoehe": 322,
    "kfz": "SHA",
    "fluesse": []
  },
  {
    "name": "Amberg",
    "lat": 49.44287,
    "lon": 11.86267,
    "bundesland": "Bayern",
    "einwohner": 42553,
    "flaeche": 50.14,
    "hoehe": 373,
    "kfz": "AM",
    "fluesse": []
  },
  {
    "name": "Siegburg",
    "lat": 50.80019,
    "lon": 7.20769,
    "bundesland": "Nordrhein-Westfalen",
    "einwohner": 42445,
    "flaeche": 23.66,
    "hoehe": 71,
    "kfz": "",
    "fluesse": []
  },
  {
    "name": "Weiden i.d.OPf.",
    "lat": 49.67682,
    "lon": 12.15613,
    "bundesland": "Bayern",
    "einwohner": 42444,
    "flaeche": 70.57,
    "hoehe": 397,
    "kfz": "WEN",
    "fluesse": []
  },
  {
    "name": "Kamen",
    "lat": 51.59231,
    "lon": 7.6638,
    "bundesland": "Nordrhein-Westfalen",
    "einwohner": 42319,
    "flaeche": 40.95,
    "hoehe": 65,
    "kfz": "",
    "fluesse": []
  },
  {
    "name": "Kirchheim unter Teck",
    "lat": 48.64683,
    "lon": 9.45378,
    "bundesland": "Baden-Württemberg",
    "einwohner": 42299,
    "flaeche": 40.47,
    "hoehe": 316,
    "kfz": "",
    "fluesse": []
  },
  {
    "name": "Nettetal",
    "lat": 51.31667,
    "lon": 6.28333,
    "bundesland": "Nordrhein-Westfalen",
    "einwohner": 41955,
    "flaeche": 83.87,
    "hoehe": 52,
    "kfz": "",
    "fluesse": []
  },
  {
    "name": "Laatzen",
    "lat": 52.31506,
    "lon": 9.79739,
    "bundesland": "Niedersachsen",
    "einwohner": 41838,
    "flaeche": 34.16,
    "hoehe": 71,
    "kfz": "",
    "fluesse": []
  },
  {
    "name": "Buchholz in der Nordheide",
    "lat": 53.33038,
    "lon": 9.86596,
    "bundesland": "Niedersachsen",
    "einwohner": 41737,
    "flaeche": 74.76,
    "hoehe": 73,
    "kfz": "WL",
    "fluesse": []
  },
  {
    "name": "Dreieich",
    "lat": 50.01997,
    "lon": 8.69611,
    "bundesland": "Hessen",
    "einwohner": 41692,
    "flaeche": 53.27,
    "hoehe": 134,
    "kfz": "",
    "fluesse": []
  },
  {
    "name": "Schorndorf",
    "lat": 48.80537,
    "lon": 9.52721,
    "bundesland": "Baden-Württemberg",
    "einwohner": 41647,
    "flaeche": 56.83,
    "hoehe": 259,
    "kfz": "",
    "fluesse": []
  },
  {
    "name": "Freiberg",
    "lat": 50.91089,
    "lon": 13.33881,
    "bundesland": "Sachsen",
    "einwohner": 41519,
    "flaeche": 48.31,
    "hoehe": 412,
    "kfz": "FG",
    "fluesse": []
  },
  {
    "name": "Eberswalde",
    "lat": 52.83492,
    "lon": 13.81951,
    "bundesland": "Brandenburg",
    "einwohner": 41481,
    "flaeche": 93.63,
    "hoehe": 14,
    "kfz": "EWE",
    "fluesse": []
  },
  {
    "name": "Wunstorf",
    "lat": 52.42377,
    "lon": 9.43585,
    "bundesland": "Niedersachsen",
    "einwohner": 41211,
    "flaeche": 125.74,
    "hoehe": 47,
    "kfz": "",
    "fluesse": []
  },
  {
    "name": "Hückelhoven",
    "lat": 51.0555,
    "lon": 6.22658,
    "bundesland": "Nordrhein-Westfalen",
    "einwohner": 41192,
    "flaeche": 61.27,
    "hoehe": 64,
    "kfz": "",
    "fluesse": []
  },
  {
    "name": "Leinfelden-Echterdingen",
    "lat": 48.69406,
    "lon": 9.16809,
    "bundesland": "Baden-Württemberg",
    "einwohner": 41185,
    "flaeche": 29.89,
    "hoehe": 422,
    "kfz": "",
    "fluesse": []
  },
  {
    "name": "Bensheim",
    "lat": 49.68369,
    "lon": 8.61839,
    "bundesland": "Hessen",
    "einwohner": 41124,
    "flaeche": 57.83,
    "hoehe": 103,
    "kfz": "",
    "fluesse": []
  },
  {
    "name": "Neumarkt i.d.OPf.",
    "lat": 49.28028,
    "lon": 11.46278,
    "bundesland": "Bayern",
    "einwohner": 41103,
    "flaeche": 79.01,
    "hoehe": 431,
    "kfz": "ESB",
    "fluesse": []
  },
  {
    "name": "Coburg",
    "lat": 50.25937,
    "lon": 10.96384,
    "bundesland": "Bayern",
    "einwohner": 41064,
    "flaeche": 48.29,
    "hoehe": 304,
    "kfz": "CO",
    "fluesse": []
  },
  {
    "name": "Völklingen",
    "lat": 49.25162,
    "lon": 6.85873,
    "bundesland": "Saarland",
    "einwohner": 40952,
    "flaeche": 67.1,
    "hoehe": 197,
    "kfz": "VOL",
    "fluesse": []
  },
  {
    "name": "Germering",
    "lat": 48.13392,
    "lon": 11.3765,
    "bundesland": "Bayern",
    "einwohner": 40916,
    "flaeche": 21.61,
    "hoehe": 544,
    "kfz": "",
    "fluesse": []
  },
  {
    "name": "Buxtehude",
    "lat": 53.46994,
    "lon": 9.68968,
    "bundesland": "Niedersachsen",
    "einwohner": 40886,
    "flaeche": 76.69,
    "hoehe": 10,
    "kfz": "",
    "fluesse": []
  },
  {
    "name": "Schwabach",
    "lat": 49.33047,
    "lon": 11.02346,
    "bundesland": "Bayern",
    "einwohner": 40835,
    "flaeche": 40.8,
    "hoehe": 328,
    "kfz": "",
    "fluesse": []
  },
  {
    "name": "Löhne",
    "lat": 52.18848,
    "lon": 8.6922,
    "bundesland": "Nordrhein-Westfalen",
    "einwohner": 40826,
    "flaeche": 59.51,
    "hoehe": 68,
    "kfz": "",
    "fluesse": []
  },
  {
    "name": "Nürtingen",
    "lat": 48.62565,
    "lon": 9.34203,
    "bundesland": "Baden-Württemberg",
    "einwohner": 40773,
    "flaeche": 46.88,
    "hoehe": 284,
    "kfz": "",
    "fluesse": []
  },
  {
    "name": "Nordhausen",
    "lat": 51.5018,
    "lon": 10.7957,
    "bundesland": "Thüringen",
    "einwohner": 40767,
    "flaeche": 108.24,
    "hoehe": 208,
    "kfz": "NDH",
    "fluesse": []
  },
  {
    "name": "Eisenach",
    "lat": 50.9807,
    "lon": 10.31522,
    "bundesland": "Thüringen",
    "einwohner": 40747,
    "flaeche": 104.17,
    "hoehe": 215,
    "kfz": "EIS",
    "fluesse": []
  },
  {
    "name": "Ansbach",
    "lat": 49.30481,
    "lon": 10.5931,
    "bundesland": "Bayern",
    "einwohner": 40742,
    "flaeche": 99.91,
    "hoehe": 451,
    "kfz": "AN",
    "fluesse": []
  },
  {
    "name": "Königswinter",
    "lat": 50.67734,
    "lon": 7.19245,
    "bundesland": "Nordrhein-Westfalen",
    "einwohner": 40574,
    "flaeche": 76.2,
    "hoehe": 114,
    "kfz": "",
    "fluesse": []
  },
  {
    "name": "Ahaus",
    "lat": 52.07936,
    "lon": 7.01344,
    "bundesland": "Nordrhein-Westfalen",
    "einwohner": 40176,
    "flaeche": 151.24,
    "hoehe": 50,
    "kfz": "BOR",
    "fluesse": []
  },
  {
    "name": "Würselen",
    "lat": 50.81809,
    "lon": 6.1347,
    "bundesland": "Nordrhein-Westfalen",
    "einwohner": 40145,
    "flaeche": 34.39,
    "hoehe": 190,
    "kfz": "",
    "fluesse": []
  },
  {
    "name": "Pirna",
    "lat": 50.95843,
    "lon": 13.93702,
    "bundesland": "Sachsen",
    "einwohner": 40128,
    "flaeche": 53.06,
    "hoehe": 119,
    "kfz": "PIR",
    "fluesse": []
  },
  {
    "name": "Lemgo",
    "lat": 52.02786,
    "lon": 8.89901,
    "bundesland": "Nordrhein-Westfalen",
    "einwohner": 39905,
    "flaeche": 100.85,
    "hoehe": 100,
    "kfz": "",
    "fluesse": []
  },
  {
    "name": "Ostfildern",
    "lat": 48.72704,
    "lon": 9.24954,
    "bundesland": "Baden-Württemberg",
    "einwohner": 39778,
    "flaeche": 22.81,
    "hoehe": 409,
    "kfz": "",
    "fluesse": []
  },
  {
    "name": "Pirmasens",
    "lat": 49.20145,
    "lon": 7.60529,
    "bundesland": "Rheinland-Pfalz",
    "einwohner": 39761,
    "flaeche": 61.35,
    "hoehe": 400,
    "kfz": "PZ",
    "fluesse": []
  },
  {
    "name": "Kehl",
    "lat": 48.57297,
    "lon": 7.81523,
    "bundesland": "Baden-Württemberg",
    "einwohner": 39584,
    "flaeche": 75.07,
    "hoehe": 138,
    "kfz": "",
    "fluesse": []
  },
  {
    "name": "Mettmann",
    "lat": 51.2504,
    "lon": 6.97536,
    "bundesland": "Nordrhein-Westfalen",
    "einwohner": 39542,
    "flaeche": 42.56,
    "hoehe": 132,
    "kfz": "ME",
    "fluesse": []
  },
  {
    "name": "Königs Wusterhausen",
    "lat": 52.30141,
    "lon": 13.633,
    "bundesland": "Brandenburg",
    "einwohner": 39360,
    "flaeche": 96.04,
    "hoehe": 32,
    "kfz": "LDS",
    "fluesse": []
  },
  {
    "name": "Freital",
    "lat": 51.00166,
    "lon": 13.6488,
    "bundesland": "Sachsen",
    "einwohner": 39281,
    "flaeche": 40.46,
    "hoehe": 171,
    "kfz": "",
    "fluesse": []
  },
  {
    "name": "Hofheim am Taunus",
    "lat": 50.09019,
    "lon": 8.4493,
    "bundesland": "Hessen",
    "einwohner": 39259,
    "flaeche": 57.43,
    "hoehe": 145,
    "kfz": "",
    "fluesse": []
  },
  {
    "name": "Maintal",
    "lat": 50.15,
    "lon": 8.83333,
    "bundesland": "Hessen",
    "einwohner": 38987,
    "flaeche": 32.41,
    "hoehe": 107,
    "kfz": "",
    "fluesse": []
  },
  {
    "name": "Ilmenau",
    "lat": 50.68322,
    "lon": 10.91858,
    "bundesland": "Thüringen",
    "einwohner": 38834,
    "flaeche": 198.69,
    "hoehe": 478,
    "kfz": "IL",
    "fluesse": []
  },
  {
    "name": "Backnang",
    "lat": 48.94743,
    "lon": 9.43718,
    "bundesland": "Baden-Württemberg",
    "einwohner": 38818,
    "flaeche": 39.38,
    "hoehe": 245,
    "kfz": "WN",
    "fluesse": []
  },
  {
    "name": "Langen (Hessen)",
    "lat": 49.98955,
    "lon": 8.66852,
    "bundesland": "Hessen",
    "einwohner": 38785,
    "flaeche": 29.12,
    "hoehe": 134,
    "kfz": "",
    "fluesse": []
  },
  {
    "name": "Ettlingen",
    "lat": 48.94094,
    "lon": 8.40763,
    "bundesland": "Baden-Württemberg",
    "einwohner": 38578,
    "flaeche": 56.75,
    "hoehe": 139,
    "kfz": "",
    "fluesse": []
  },
  {
    "name": "Niederkassel",
    "lat": 50.81503,
    "lon": 7.03777,
    "bundesland": "Nordrhein-Westfalen",
    "einwohner": 38485,
    "flaeche": 35.79,
    "hoehe": 59,
    "kfz": "",
    "fluesse": []
  },
  {
    "name": "Coesfeld",
    "lat": 51.94349,
    "lon": 7.16809,
    "bundesland": "Nordrhein-Westfalen",
    "einwohner": 38237,
    "flaeche": 141.36,
    "hoehe": 83,
    "kfz": "COE",
    "fluesse": []
  },
  {
    "name": "Kamp-Lintfort",
    "lat": 51.50467,
    "lon": 6.54587,
    "bundesland": "Nordrhein-Westfalen",
    "einwohner": 38217,
    "flaeche": 63.14,
    "hoehe": 30,
    "kfz": "",
    "fluesse": []
  },
  {
    "name": "Greven",
    "lat": 52.09364,
    "lon": 7.59396,
    "bundesland": "Nordrhein-Westfalen",
    "einwohner": 38212,
    "flaeche": 140.26,
    "hoehe": 45,
    "kfz": "",
    "fluesse": []
  },
  {
    "name": "Haltern am See",
    "lat": 51.74297,
    "lon": 7.18163,
    "bundesland": "Nordrhein-Westfalen",
    "einwohner": 38142,
    "flaeche": 159.03,
    "hoehe": 45,
    "kfz": "",
    "fluesse": []
  },
  {
    "name": "Wesseling",
    "lat": 50.82709,
    "lon": 6.9747,
    "bundesland": "Nordrhein-Westfalen",
    "einwohner": 38106,
    "flaeche": 23.37,
    "hoehe": 50,
    "kfz": "",
    "fluesse": []
  },
  {
    "name": "Weißenfels",
    "lat": 51.20148,
    "lon": 11.96843,
    "bundesland": "Sachsen-Anhalt",
    "einwohner": 37929,
    "flaeche": 113.96,
    "hoehe": 102,
    "kfz": "WEW",
    "fluesse": []
  },
  {
    "name": "Neu-Isenburg",
    "lat": 50.04832,
    "lon": 8.69406,
    "bundesland": "Hessen",
    "einwohner": 37926,
    "flaeche": 24.29,
    "hoehe": 127,
    "kfz": "",
    "fluesse": []
  },
  {
    "name": "Halberstadt",
    "lat": 51.89562,
    "lon": 11.05622,
    "bundesland": "Sachsen-Anhalt",
    "einwohner": 37898,
    "flaeche": 143.27,
    "hoehe": 123,
    "kfz": "HBS",
    "fluesse": []
  },
  {
    "name": "Stendal",
    "lat": 52.6069,
    "lon": 11.85867,
    "bundesland": "Sachsen-Anhalt",
    "einwohner": 37850,
    "flaeche": 269.24,
    "hoehe": 34,
    "kfz": "STE",
    "fluesse": []
  },
  {
    "name": "Warendorf",
    "lat": 51.95109,
    "lon": 7.98756,
    "bundesland": "Nordrhein-Westfalen",
    "einwohner": 37703,
    "flaeche": 176.88,
    "hoehe": 58,
    "kfz": "WAR",
    "fluesse": []
  },
  {
    "name": "Saarlouis",
    "lat": 49.31366,
    "lon": 6.75154,
    "bundesland": "Saarland",
    "einwohner": 37667,
    "flaeche": 43.3,
    "hoehe": 183,
    "kfz": "SLS",
    "fluesse": []
  },
  {
    "name": "Bautzen / Budyšin",
    "lat": 51.18035,
    "lon": 14.43494,
    "bundesland": "Sachsen",
    "einwohner": 37566,
    "flaeche": 66.67,
    "hoehe": 213,
    "kfz": "",
    "fluesse": []
  },
  {
    "name": "Fürstenfeldbruck",
    "lat": 48.17904,
    "lon": 11.2547,
    "bundesland": "Bayern",
    "einwohner": 37420,
    "flaeche": 32.52,
    "hoehe": 517,
    "kfz": "FLD",
    "fluesse": []
  },
  {
    "name": "Papenburg",
    "lat": 53.07769,
    "lon": 7.41516,
    "bundesland": "Niedersachsen",
    "einwohner": 37206,
    "flaeche": 118.44,
    "hoehe": 5,
    "kfz": "EL",
    "fluesse": []
  },
  {
    "name": "Erding",
    "lat": 48.30603,
    "lon": 11.90686,
    "bundesland": "Bayern",
    "einwohner": 37171,
    "flaeche": 54.61,
    "hoehe": 466,
    "kfz": "ED",
    "fluesse": []
  },
  {
    "name": "Beckum",
    "lat": 51.75571,
    "lon": 8.04075,
    "bundesland": "Nordrhein-Westfalen",
    "einwohner": 37133,
    "flaeche": 111.46,
    "hoehe": 116,
    "kfz": "",
    "fluesse": []
  },
  {
    "name": "Tuttlingen",
    "lat": 47.98464,
    "lon": 8.8177,
    "bundesland": "Baden-Württemberg",
    "einwohner": 37109,
    "flaeche": 90.45,
    "hoehe": 646,
    "kfz": "TUT",
    "fluesse": []
  },
  {
    "name": "Sinsheim",
    "lat": 49.2529,
    "lon": 8.87867,
    "bundesland": "Baden-Württemberg",
    "einwohner": 37036,
    "flaeche": 126.99,
    "hoehe": 162,
    "kfz": "HD",
    "fluesse": []
  },
  {
    "name": "Winsen (Luhe)",
    "lat": 52.68367,
    "lon": 9.9095,
    "bundesland": "Niedersachsen",
    "einwohner": 36961,
    "flaeche": 109.77,
    "hoehe": 32,
    "kfz": "",
    "fluesse": []
  },
  {
    "name": "Meppen",
    "lat": 52.69064,
    "lon": 7.29097,
    "bundesland": "Niedersachsen",
    "einwohner": 36930,
    "flaeche": 188.4,
    "hoehe": 15,
    "kfz": "EL",
    "fluesse": []
  },
  {
    "name": "Bitterfeld-Wolfen",
    "lat": 51.62355,
    "lon": 12.32395,
    "bundesland": "Sachsen-Anhalt",
    "einwohner": 36592,
    "flaeche": 87.23,
    "hoehe": 79,
    "kfz": "BTF",
    "fluesse": []
  },
  {
    "name": "Cloppenburg",
    "lat": 52.84755,
    "lon": 8.04745,
    "bundesland": "Niedersachsen",
    "einwohner": 36565,
    "flaeche": 70.86,
    "hoehe": 40,
    "kfz": "CLP",
    "fluesse": []
  },
  {
    "name": "Porta Westfalica",
    "lat": 52.22961,
    "lon": 8.91612,
    "bundesland": "Nordrhein-Westfalen",
    "einwohner": 36521,
    "flaeche": 105.22,
    "hoehe": 73,
    "kfz": "",
    "fluesse": []
  },
  {
    "name": "Mühlhausen/Thüringen",
    "lat": 51.20896,
    "lon": 10.45275,
    "bundesland": "Thüringen",
    "einwohner": 36353,
    "flaeche": 151.03,
    "hoehe": 221,
    "kfz": "",
    "fluesse": []
  },
  {
    "name": "Emsdetten",
    "lat": 52.1734,
    "lon": 7.52781,
    "bundesland": "Nordrhein-Westfalen",
    "einwohner": 36159,
    "flaeche": 72.06,
    "hoehe": 44,
    "kfz": "",
    "fluesse": []
  },
  {
    "name": "Bad Vilbel",
    "lat": 50.17866,
    "lon": 8.73756,
    "bundesland": "Hessen",
    "einwohner": 35961,
    "flaeche": 25.68,
    "hoehe": 117,
    "kfz": "",
    "fluesse": []
  },
  {
    "name": "Limburg a. d. Lahn",
    "lat": 48.03138,
    "lon": 12.18221,
    "bundesland": "Hessen",
    "einwohner": 35938,
    "flaeche": 45.16,
    "hoehe": 485,
    "kfz": "",
    "fluesse": []
  },
  {
    "name": "Crailsheim",
    "lat": 49.13444,
    "lon": 10.07193,
    "bundesland": "Baden-Württemberg",
    "einwohner": 35755,
    "flaeche": 109.08,
    "hoehe": 409,
    "kfz": "CR",
    "fluesse": []
  },
  {
    "name": "Voerde (Niederrhein)",
    "lat": 51.59703,
    "lon": 6.6863,
    "bundesland": "Nordrhein-Westfalen",
    "einwohner": 35661,
    "flaeche": 53.49,
    "hoehe": 27,
    "kfz": "",
    "fluesse": []
  },
  {
    "name": "Balingen",
    "lat": 48.27525,
    "lon": 8.85464,
    "bundesland": "Baden-Württemberg",
    "einwohner": 35623,
    "flaeche": 90.32,
    "hoehe": 512,
    "kfz": "",
    "fluesse": []
  },
  {
    "name": "Dietzenbach",
    "lat": 50.00976,
    "lon": 8.77783,
    "bundesland": "Hessen",
    "einwohner": 35561,
    "flaeche": 21.68,
    "hoehe": 152,
    "kfz": "",
    "fluesse": []
  },
  {
    "name": "Datteln",
    "lat": 51.65598,
    "lon": 7.3453,
    "bundesland": "Nordrhein-Westfalen",
    "einwohner": 35473,
    "flaeche": 66.1,
    "hoehe": 54,
    "kfz": "",
    "fluesse": []
  },
  {
    "name": "St. Ingbert",
    "lat": 49.27697,
    "lon": 7.11672,
    "bundesland": "Saarland",
    "einwohner": 35453,
    "flaeche": 49.95,
    "hoehe": 230,
    "kfz": "IGB",
    "fluesse": []
  },
  {
    "name": "Lage",
    "lat": 51.99223,
    "lon": 8.79301,
    "bundesland": "Nordrhein-Westfalen",
    "einwohner": 35054,
    "flaeche": 76.04,
    "hoehe": 103,
    "kfz": "",
    "fluesse": []
  },
  {
    "name": "Deggendorf",
    "lat": 48.84085,
    "lon": 12.96068,
    "bundesland": "Bayern",
    "einwohner": 35044,
    "flaeche": 77.14,
    "hoehe": 320,
    "kfz": "DEG",
    "fluesse": []
  },
  {
    "name": "Ingelheim am Rhein",
    "lat": 49.97078,
    "lon": 8.05883,
    "bundesland": "Rheinland-Pfalz",
    "einwohner": 35016,
    "flaeche": 73.31,
    "hoehe": 113,
    "kfz": "INS",
    "fluesse": []
  },
  {
    "name": "Hemer",
    "lat": 51.38707,
    "lon": 7.77019,
    "bundesland": "Nordrhein-Westfalen",
    "einwohner": 35005,
    "flaeche": 67.66,
    "hoehe": 215,
    "kfz": "HEM",
    "fluesse": []
  },
  {
    "name": "Geldern",
    "lat": 51.51908,
    "lon": 6.32363,
    "bundesland": "Nordrhein-Westfalen",
    "einwohner": 34962,
    "flaeche": 96.97,
    "hoehe": 28,
    "kfz": "",
    "fluesse": []
  },
  {
    "name": "Wedel",
    "lat": 53.58374,
    "lon": 9.69835,
    "bundesland": "Schleswig-Holstein",
    "einwohner": 34912,
    "flaeche": 33.81,
    "hoehe": 11,
    "kfz": "",
    "fluesse": []
  },
  {
    "name": "Goch",
    "lat": 51.67873,
    "lon": 6.15895,
    "bundesland": "Nordrhein-Westfalen",
    "einwohner": 34907,
    "flaeche": 115.43,
    "hoehe": 19,
    "kfz": "",
    "fluesse": []
  },
  {
    "name": "Jülich",
    "lat": 50.92149,
    "lon": 6.36267,
    "bundesland": "Nordrhein-Westfalen",
    "einwohner": 34890,
    "flaeche": 90.39,
    "hoehe": 85,
    "kfz": "JÜ",
    "fluesse": []
  },
  {
    "name": "Steinfurt",
    "lat": 52.15045,
    "lon": 7.33664,
    "bundesland": "Nordrhein-Westfalen",
    "einwohner": 34860,
    "flaeche": 111.67,
    "hoehe": 59,
    "kfz": "ST",
    "fluesse": []
  },
  {
    "name": "Suhl",
    "lat": 50.60911,
    "lon": 10.69401,
    "bundesland": "Thüringen",
    "einwohner": 34685,
    "flaeche": 141.62,
    "hoehe": 442,
    "kfz": "SUL",
    "fluesse": []
  },
  {
    "name": "Rheinfelden (Baden)",
    "lat": 47.56013,
    "lon": 7.78715,
    "bundesland": "Baden-Württemberg",
    "einwohner": 34674,
    "flaeche": 62.84,
    "hoehe": 279,
    "kfz": "",
    "fluesse": []
  },
  {
    "name": "Korschenbroich",
    "lat": 51.19139,
    "lon": 6.51352,
    "bundesland": "Nordrhein-Westfalen",
    "einwohner": 34600,
    "flaeche": 55.24,
    "hoehe": 48,
    "kfz": "",
    "fluesse": []
  },
  {
    "name": "Biberach an der Riß",
    "lat": 48.09345,
    "lon": 9.79053,
    "bundesland": "Baden-Württemberg",
    "einwohner": 34576,
    "flaeche": 72.15,
    "hoehe": 535,
    "kfz": "BW",
    "fluesse": []
  },
  {
    "name": "Ahrensburg",
    "lat": 53.67661,
    "lon": 10.23705,
    "bundesland": "Schleswig-Holstein",
    "einwohner": 34534,
    "flaeche": 35.29,
    "hoehe": 42,
    "kfz": "",
    "fluesse": []
  },
  {
    "name": "Viernheim",
    "lat": 49.54033,
    "lon": 8.5782,
    "bundesland": "Hessen",
    "einwohner": 34426,
    "flaeche": 48.41,
    "hoehe": 103,
    "kfz": "",
    "fluesse": []
  },
  {
    "name": "Merseburg",
    "lat": 51.35478,
    "lon": 11.98923,
    "bundesland": "Sachsen-Anhalt",
    "einwohner": 34392,
    "flaeche": 53.87,
    "hoehe": 101,
    "kfz": "MER",
    "fluesse": []
  },
  {
    "name": "Wermelskirchen",
    "lat": 51.1397,
    "lon": 7.21583,
    "bundesland": "Nordrhein-Westfalen",
    "einwohner": 34375,
    "flaeche": 74.8,
    "hoehe": 302,
    "kfz": "",
    "fluesse": []
  },
  {
    "name": "Seelze",
    "lat": 52.39635,
    "lon": 9.59727,
    "bundesland": "Niedersachsen",
    "einwohner": 34364,
    "flaeche": 54.08,
    "hoehe": 50,
    "kfz": "",
    "fluesse": []
  },
  {
    "name": "Herrenberg",
    "lat": 48.59523,
    "lon": 8.86648,
    "bundesland": "Baden-Württemberg",
    "einwohner": 34192,
    "flaeche": 65.7,
    "hoehe": 431,
    "kfz": "BB",
    "fluesse": []
  },
  {
    "name": "Kempen",
    "lat": 51.36432,
    "lon": 6.41858,
    "bundesland": "Nordrhein-Westfalen",
    "einwohner": 34105,
    "flaeche": 68.8,
    "hoehe": 41,
    "kfz": "",
    "fluesse": []
  },
  {
    "name": "Leer (Ostfriesland)",
    "lat": 53.23157,
    "lon": 7.461,
    "bundesland": "Niedersachsen",
    "einwohner": 34025,
    "flaeche": 70.11,
    "hoehe": 7,
    "kfz": "",
    "fluesse": []
  },
  {
    "name": "Kornwestheim",
    "lat": 48.86158,
    "lon": 9.18569,
    "bundesland": "Baden-Württemberg",
    "einwohner": 33980,
    "flaeche": 14.65,
    "hoehe": 299,
    "kfz": "",
    "fluesse": []
  },
  {
    "name": "Barsinghausen",
    "lat": 52.3,
    "lon": 9.45,
    "bundesland": "Niedersachsen",
    "einwohner": 33941,
    "flaeche": 102.81,
    "hoehe": 142,
    "kfz": "",
    "fluesse": []
  },
  {
    "name": "Schwedt/Oder",
    "lat": 53.05963,
    "lon": 14.28154,
    "bundesland": "Brandenburg",
    "einwohner": 33730,
    "flaeche": 360.74,
    "hoehe": 2,
    "kfz": "",
    "fluesse": []
  },
  {
    "name": "Vechta",
    "lat": 52.72632,
    "lon": 8.28598,
    "bundesland": "Niedersachsen",
    "einwohner": 33728,
    "flaeche": 87.89,
    "hoehe": 36,
    "kfz": "VEC",
    "fluesse": []
  },
  {
    "name": "Geesthacht",
    "lat": 53.4366,
    "lon": 10.37339,
    "bundesland": "Schleswig-Holstein",
    "einwohner": 33519,
    "flaeche": 33.25,
    "hoehe": 43,
    "kfz": "",
    "fluesse": []
  },
  {
    "name": "Zweibrücken",
    "lat": 49.24686,
    "lon": 7.36977,
    "bundesland": "Rheinland-Pfalz",
    "einwohner": 33323,
    "flaeche": 70.64,
    "hoehe": 242,
    "kfz": "ZW",
    "fluesse": []
  },
  {
    "name": "Forchheim",
    "lat": 49.71754,
    "lon": 11.05877,
    "bundesland": "Bayern",
    "einwohner": 33017,
    "flaeche": 44.44,
    "hoehe": 261,
    "kfz": "FO",
    "fluesse": []
  },
  {
    "name": "Radebeul",
    "lat": 51.10654,
    "lon": 13.66047,
    "bundesland": "Sachsen",
    "einwohner": 32979,
    "flaeche": 26.14,
    "hoehe": 120,
    "kfz": "RAD",
    "fluesse": []
  },
  {
    "name": "Bad Nauheim",
    "lat": 50.36463,
    "lon": 8.73859,
    "bundesland": "Hessen",
    "einwohner": 32894,
    "flaeche": 32.54,
    "hoehe": 157,
    "kfz": "FB",
    "fluesse": []
  },
  {
    "name": "Achim",
    "lat": 53.01416,
    "lon": 9.0263,
    "bundesland": "Niedersachsen",
    "einwohner": 32870,
    "flaeche": 68.06,
    "hoehe": 14,
    "kfz": "",
    "fluesse": []
  },
  {
    "name": "Uelzen",
    "lat": 52.96572,
    "lon": 10.56111,
    "bundesland": "Niedersachsen",
    "einwohner": 32821,
    "flaeche": 136.84,
    "hoehe": 42,
    "kfz": "UO",
    "fluesse": []
  },
  {
    "name": "Itzehoe",
    "lat": 53.92099,
    "lon": 9.51529,
    "bundesland": "Schleswig-Holstein",
    "einwohner": 32725,
    "flaeche": 28.54,
    "hoehe": 7,
    "kfz": "IZE",
    "fluesse": []
  },
  {
    "name": "Nienburg (Weser)",
    "lat": 51.83747,
    "lon": 11.76979,
    "bundesland": "Niedersachsen",
    "einwohner": 32608,
    "flaeche": 64.53,
    "hoehe": 69,
    "kfz": "",
    "fluesse": []
  },
  {
    "name": "Lampertheim",
    "lat": 49.59786,
    "lon": 8.4725,
    "bundesland": "Hessen",
    "einwohner": 32400,
    "flaeche": 72.27,
    "hoehe": 97,
    "kfz": "",
    "fluesse": []
  },
  {
    "name": "Weil am Rhein",
    "lat": 47.59331,
    "lon": 7.62082,
    "bundesland": "Baden-Württemberg",
    "einwohner": 32236,
    "flaeche": 19.46,
    "hoehe": 277,
    "kfz": "",
    "fluesse": []
  },
  {
    "name": "Wernigerode",
    "lat": 51.83652,
    "lon": 10.78216,
    "bundesland": "Sachsen-Anhalt",
    "einwohner": 32167,
    "flaeche": 170.5,
    "hoehe": 237,
    "kfz": "WR",
    "fluesse": []
  },
  {
    "name": "Delbrück",
    "lat": 51.76503,
    "lon": 8.56223,
    "bundesland": "Nordrhein-Westfalen",
    "einwohner": 32166,
    "flaeche": 157.28,
    "hoehe": 102,
    "kfz": "",
    "fluesse": []
  },
  {
    "name": "Fürstenwalde/Spree",
    "lat": 52.36067,
    "lon": 14.06185,
    "bundesland": "Brandenburg",
    "einwohner": 32002,
    "flaeche": 70.67,
    "hoehe": 44,
    "kfz": "",
    "fluesse": []
  },
  {
    "name": "Neuruppin",
    "lat": 52.92815,
    "lon": 12.80311,
    "bundesland": "Brandenburg",
    "einwohner": 31962,
    "flaeche": 305.19,
    "hoehe": 45,
    "kfz": "OPR",
    "fluesse": []
  },
  {
    "name": "Naumburg (Saale)",
    "lat": 51.14987,
    "lon": 11.80979,
    "bundesland": "Sachsen-Anhalt",
    "einwohner": 31940,
    "flaeche": 130.25,
    "hoehe": 134,
    "kfz": "",
    "fluesse": []
  },
  {
    "name": "Emmerich am Rhein",
    "lat": 51.83933,
    "lon": 6.24792,
    "bundesland": "Nordrhein-Westfalen",
    "einwohner": 31829,
    "flaeche": 80.4,
    "hoehe": 19,
    "kfz": "",
    "fluesse": []
  },
  {
    "name": "Radolfzell am Bodensee",
    "lat": 47.74194,
    "lon": 8.97098,
    "bundesland": "Baden-Württemberg",
    "einwohner": 31734,
    "flaeche": 58.55,
    "hoehe": 403,
    "kfz": "",
    "fluesse": []
  },
  {
    "name": "Merzig",
    "lat": 49.44331,
    "lon": 6.63874,
    "bundesland": "Saarland",
    "einwohner": 31697,
    "flaeche": 108.98,
    "hoehe": 177,
    "kfz": "MES",
    "fluesse": []
  },
  {
    "name": "Mörfelden-Walldorf",
    "lat": 49.99472,
    "lon": 8.58361,
    "bundesland": "Hessen",
    "einwohner": 31638,
    "flaeche": 44.13,
    "hoehe": 109,
    "kfz": "",
    "fluesse": []
  },
  {
    "name": "Oer-Erkenschwick",
    "lat": 51.64198,
    "lon": 7.26451,
    "bundesland": "Nordrhein-Westfalen",
    "einwohner": 31404,
    "flaeche": 38.66,
    "hoehe": 76,
    "kfz": "",
    "fluesse": []
  },
  {
    "name": "Georgsmarienhütte",
    "lat": 52.20296,
    "lon": 8.0448,
    "bundesland": "Niedersachsen",
    "einwohner": 31244,
    "flaeche": 55.49,
    "hoehe": 117,
    "kfz": "",
    "fluesse": []
  },
  {
    "name": "Rheinberg",
    "lat": 51.54649,
    "lon": 6.59525,
    "bundesland": "Nordrhein-Westfalen",
    "einwohner": 31172,
    "flaeche": 75.24,
    "hoehe": 25,
    "kfz": "RHN",
    "fluesse": []
  },
  {
    "name": "Geestland",
    "lat": 54.34143,
    "lon": 9.02374,
    "bundesland": "Niedersachsen",
    "einwohner": 31093,
    "flaeche": 356.56,
    "hoehe": 2,
    "kfz": "",
    "fluesse": []
  },
  {
    "name": "Altenburg",
    "lat": 50.98763,
    "lon": 12.43684,
    "bundesland": "Thüringen",
    "einwohner": 31093,
    "flaeche": 45.69,
    "hoehe": 193,
    "kfz": "ABG",
    "fluesse": []
  },
  {
    "name": "Burgdorf",
    "lat": 52.44628,
    "lon": 10.0064,
    "bundesland": "Niedersachsen",
    "einwohner": 31051,
    "flaeche": 112.56,
    "hoehe": 55,
    "kfz": "",
    "fluesse": []
  },
  {
    "name": "Walsrode",
    "lat": 52.86147,
    "lon": 9.5926,
    "bundesland": "Niedersachsen",
    "einwohner": 31019,
    "flaeche": 336.46,
    "hoehe": 37,
    "kfz": "",
    "fluesse": []
  },
  {
    "name": "Bernburg (Saale)",
    "lat": 51.79464,
    "lon": 11.7401,
    "bundesland": "Sachsen-Anhalt",
    "einwohner": 30992,
    "flaeche": 113.92,
    "hoehe": 86,
    "kfz": "",
    "fluesse": []
  },
  {
    "name": "Lohmar",
    "lat": 50.83868,
    "lon": 7.21399,
    "bundesland": "Nordrhein-Westfalen",
    "einwohner": 30992,
    "flaeche": 65.62,
    "hoehe": 77,
    "kfz": "",
    "fluesse": []
  },
  {
    "name": "Kreuztal",
    "lat": 50.96775,
    "lon": 7.98848,
    "bundesland": "Nordrhein-Westfalen",
    "einwohner": 30905,
    "flaeche": 71.07,
    "hoehe": 336,
    "kfz": "",
    "fluesse": []
  },
  {
    "name": "Bad Hersfeld",
    "lat": 50.87197,
    "lon": 9.70891,
    "bundesland": "Hessen",
    "einwohner": 30846,
    "flaeche": 73.87,
    "hoehe": 209,
    "kfz": "HEF",
    "fluesse": []
  },
  {
    "name": "Hoyerswerda / Wojerecy",
    "lat": 51.43787,
    "lon": 14.23549,
    "bundesland": "Sachsen",
    "einwohner": 30759,
    "flaeche": 94.99,
    "hoehe": 118,
    "kfz": "",
    "fluesse": []
  },
  {
    "name": "Rendsburg",
    "lat": 54.30182,
    "lon": 9.67175,
    "bundesland": "Schleswig-Holstein",
    "einwohner": 30633,
    "flaeche": 23.75,
    "hoehe": 9,
    "kfz": "RD",
    "fluesse": []
  },
  {
    "name": "Schönebeck (Elbe)",
    "lat": 52.01682,
    "lon": 11.7307,
    "bundesland": "Sachsen-Anhalt",
    "einwohner": 30419,
    "flaeche": 86.52,
    "hoehe": 53,
    "kfz": "",
    "fluesse": []
  },
  {
    "name": "Friedberg (Hessen)",
    "lat": 48.35693,
    "lon": 10.98461,
    "bundesland": "Hessen",
    "einwohner": 30409,
    "flaeche": 50.18,
    "hoehe": 514,
    "kfz": "",
    "fluesse": []
  },
  {
    "name": "Bretten",
    "lat": 49.03685,
    "lon": 8.70745,
    "bundesland": "Baden-Württemberg",
    "einwohner": 30274,
    "flaeche": 71.1,
    "hoehe": 183,
    "kfz": "",
    "fluesse": []
  },
  {
    "name": "Werne",
    "lat": 51.66446,
    "lon": 7.63421,
    "bundesland": "Nordrhein-Westfalen",
    "einwohner": 30202,
    "flaeche": 76.14,
    "hoehe": 60,
    "kfz": "",
    "fluesse": []
  },
  {
    "name": "Idar-Oberstein",
    "lat": 49.71443,
    "lon": 7.30776,
    "bundesland": "Rheinland-Pfalz",
    "einwohner": 30170,
    "flaeche": 91.58,
    "hoehe": 288,
    "kfz": "BIR",
    "fluesse": []
  },
  {
    "name": "Taunusstein",
    "lat": 50.14993,
    "lon": 8.15206,
    "bundesland": "Hessen",
    "einwohner": 30145,
    "flaeche": 67.02,
    "hoehe": 381,
    "kfz": "",
    "fluesse": []
  },
  {
    "name": "Neuburg a.d.Donau",
    "lat": 48.73218,
    "lon": 11.18709,
    "bundesland": "Bayern",
    "einwohner": 30135,
    "flaeche": 81.29,
    "hoehe": 381,
    "kfz": "",
    "fluesse": []
  },
  {
    "name": "Oelde",
    "lat": 51.8289,
    "lon": 8.14724,
    "bundesland": "Nordrhein-Westfalen",
    "einwohner": 30129,
    "flaeche": 102.77,
    "hoehe": 90,
    "kfz": "",
    "fluesse": []
  },
  {
    "name": "Haan",
    "lat": 51.19382,
    "lon": 7.0133,
    "bundesland": "Nordrhein-Westfalen",
    "einwohner": 30086,
    "flaeche": 24.19,
    "hoehe": 168,
    "kfz": "",
    "fluesse": []
  },
  {
    "name": "Rietberg",
    "lat": 51.80924,
    "lon": 8.42841,
    "bundesland": "Nordrhein-Westfalen",
    "einwohner": 30055,
    "flaeche": 110.31,
    "hoehe": 80,
    "kfz": "",
    "fluesse": []
  },
  {
    "name": "Andernach",
    "lat": 50.43109,
    "lon": 7.40425,
    "bundesland": "Rheinland-Pfalz",
    "einwohner": 30039,
    "flaeche": 53.34,
    "hoehe": 81,
    "kfz": "",
    "fluesse": []
  },
  {
    "name": "Gevelsberg",
    "lat": 51.31971,
    "lon": 7.3392,
    "bundesland": "Nordrhein-Westfalen",
    "einwohner": 30006,
    "flaeche": 26.34,
    "hoehe": 166,
    "kfz": "",
    "fluesse": []
  },
  {
    "name": "Friedberg",
    "lat": 48.35693,
    "lon": 10.98461,
    "bundesland": "Bayern",
    "einwohner": 29953,
    "flaeche": 81.25,
    "hoehe": 514,
    "kfz": "FDB",
    "fluesse": []
  },
  {
    "name": "Schwandorf",
    "lat": 49.32534,
    "lon": 12.1098,
    "bundesland": "Bayern",
    "einwohner": 29877,
    "flaeche": 123.8,
    "hoehe": 363,
    "kfz": "",
    "fluesse": []
  },
  {
    "name": "Winnenden",
    "lat": 48.87563,
    "lon": 9.39819,
    "bundesland": "Baden-Württemberg",
    "einwohner": 29876,
    "flaeche": 28.05,
    "hoehe": 293,
    "kfz": "WIN",
    "fluesse": []
  },
  {
    "name": "Einbeck",
    "lat": 51.82018,
    "lon": 9.86961,
    "bundesland": "Niedersachsen",
    "einwohner": 29751,
    "flaeche": 231.92,
    "hoehe": 115,
    "kfz": "EIN",
    "fluesse": []
  },
  {
    "name": "Osterholz-Scharmbeck",
    "lat": 53.22659,
    "lon": 8.7923,
    "bundesland": "Niedersachsen",
    "einwohner": 29710,
    "flaeche": 147.17,
    "hoehe": 12,
    "kfz": "",
    "fluesse": []
  },
  {
    "name": "Meschede",
    "lat": 51.3502,
    "lon": 8.28332,
    "bundesland": "Nordrhein-Westfalen",
    "einwohner": 29615,
    "flaeche": 218.52,
    "hoehe": 272,
    "kfz": "",
    "fluesse": []
  },
  {
    "name": "Werl",
    "lat": 51.55493,
    "lon": 7.91403,
    "bundesland": "Nordrhein-Westfalen",
    "einwohner": 29600,
    "flaeche": 76.35,
    "hoehe": 92,
    "kfz": "",
    "fluesse": []
  },
  {
    "name": "Gaggenau",
    "lat": 48.8,
    "lon": 8.33333,
    "bundesland": "Baden-Württemberg",
    "einwohner": 29529,
    "flaeche": 65.01,
    "hoehe": 186,
    "kfz": "",
    "fluesse": []
  },
  {
    "name": "Ludwigsfelde",
    "lat": 52.30322,
    "lon": 13.25405,
    "bundesland": "Brandenburg",
    "einwohner": 29514,
    "flaeche": 109.99,
    "hoehe": 47,
    "kfz": "",
    "fluesse": []
  },
  {
    "name": "Emmendingen",
    "lat": 48.12096,
    "lon": 7.85359,
    "bundesland": "Baden-Württemberg",
    "einwohner": 29502,
    "flaeche": 33.78,
    "hoehe": 201,
    "kfz": "EM",
    "fluesse": []
  },
  {
    "name": "Ennepetal",
    "lat": 51.29848,
    "lon": 7.3629,
    "bundesland": "Nordrhein-Westfalen",
    "einwohner": 29446,
    "flaeche": 57.77,
    "hoehe": 197,
    "kfz": "",
    "fluesse": []
  },
  {
    "name": "Riesa",
    "lat": 51.30777,
    "lon": 13.29168,
    "bundesland": "Sachsen",
    "einwohner": 29373,
    "flaeche": 58.91,
    "hoehe": 111,
    "kfz": "RIK",
    "fluesse": []
  },
  {
    "name": "Griesheim",
    "lat": 49.86085,
    "lon": 8.5725,
    "bundesland": "Hessen",
    "einwohner": 29309,
    "flaeche": 21.55,
    "hoehe": 104,
    "kfz": "",
    "fluesse": []
  },
  {
    "name": "Landsberg am Lech",
    "lat": 48.04819,
    "lon": 10.88282,
    "bundesland": "Bayern",
    "einwohner": 29257,
    "flaeche": 57.9,
    "hoehe": 637,
    "kfz": "LL",
    "fluesse": []
  },
  {
    "name": "Tönisvorst",
    "lat": 51.32092,
    "lon": 6.49412,
    "bundesland": "Nordrhein-Westfalen",
    "einwohner": 29251,
    "flaeche": 44.34,
    "hoehe": 42,
    "kfz": "",
    "fluesse": []
  },
  {
    "name": "Baesweiler",
    "lat": 50.90964,
    "lon": 6.18874,
    "bundesland": "Nordrhein-Westfalen",
    "einwohner": 29206,
    "flaeche": 27.84,
    "hoehe": 117,
    "kfz": "",
    "fluesse": []
  },
  {
    "name": "Mühlheim am Main",
    "lat": 50.11667,
    "lon": 8.83333,
    "bundesland": "Hessen",
    "einwohner": 29194,
    "flaeche": 20.67,
    "hoehe": 103,
    "kfz": "",
    "fluesse": []
  },
  {
    "name": "Mechernich",
    "lat": 50.59304,
    "lon": 6.65224,
    "bundesland": "Nordrhein-Westfalen",
    "einwohner": 29187,
    "flaeche": 136.48,
    "hoehe": 301,
    "kfz": "",
    "fluesse": []
  },
  {
    "name": "Waltrop",
    "lat": 51.62125,
    "lon": 7.40238,
    "bundesland": "Nordrhein-Westfalen",
    "einwohner": 29177,
    "flaeche": 47.09,
    "hoehe": 71,
    "kfz": "",
    "fluesse": []
  },
  {
    "name": "Saalfeld/Saale",
    "lat": 50.64826,
    "lon": 11.36536,
    "bundesland": "Thüringen",
    "einwohner": 29086,
    "flaeche": 145.56,
    "hoehe": 230,
    "kfz": "",
    "fluesse": []
  },
  {
    "name": "Güstrow",
    "lat": 53.7972,
    "lon": 12.17337,
    "bundesland": "Mecklenburg-Vorpommern",
    "einwohner": 28959,
    "flaeche": 71.09,
    "hoehe": 9,
    "kfz": "GÜ",
    "fluesse": []
  },
  {
    "name": "Vaihingen an der Enz",
    "lat": 48.93563,
    "lon": 8.96045,
    "bundesland": "Baden-Württemberg",
    "einwohner": 28798,
    "flaeche": 73.4,
    "hoehe": 237,
    "kfz": "",
    "fluesse": []
  },
  {
    "name": "Rödermark",
    "lat": 49.97397,
    "lon": 8.82816,
    "bundesland": "Hessen",
    "einwohner": 28753,
    "flaeche": 29.99,
    "hoehe": 143,
    "kfz": "",
    "fluesse": []
  },
  {
    "name": "Meißen",
    "lat": 52.26984,
    "lon": 8.95489,
    "bundesland": "Sachsen",
    "einwohner": 28753,
    "flaeche": 30.92,
    "hoehe": 46,
    "kfz": "MEI",
    "fluesse": []
  },
  {
    "name": "Rösrath",
    "lat": 50.89559,
    "lon": 7.18175,
    "bundesland": "Nordrhein-Westfalen",
    "einwohner": 28709,
    "flaeche": 38.8,
    "hoehe": 89,
    "kfz": "",
    "fluesse": []
  },
  {
    "name": "Springe",
    "lat": 52.20845,
    "lon": 9.55416,
    "bundesland": "Niedersachsen",
    "einwohner": 28669,
    "flaeche": 160.13,
    "hoehe": 110,
    "kfz": "",
    "fluesse": []
  },
  {
    "name": "Arnstadt",
    "lat": 50.84048,
    "lon": 10.95198,
    "bundesland": "Thüringen",
    "einwohner": 28615,
    "flaeche": 104.99,
    "hoehe": 274,
    "kfz": "ARN",
    "fluesse": []
  },
  {
    "name": "Bühl",
    "lat": 48.69676,
    "lon": 8.13523,
    "bundesland": "Baden-Württemberg",
    "einwohner": 28608,
    "flaeche": 73.18,
    "hoehe": 138,
    "kfz": "",
    "fluesse": []
  },
  {
    "name": "Geilenkirchen",
    "lat": 50.96745,
    "lon": 6.11763,
    "bundesland": "Nordrhein-Westfalen",
    "einwohner": 28494,
    "flaeche": 83.16,
    "hoehe": 96,
    "kfz": "GEI",
    "fluesse": []
  },
  {
    "name": "Unterschleißheim",
    "lat": 48.28038,
    "lon": 11.57684,
    "bundesland": "Bayern",
    "einwohner": 28482,
    "flaeche": 14.93,
    "hoehe": 472,
    "kfz": "",
    "fluesse": []
  },
  {
    "name": "Hattersheim am Main",
    "lat": 50.06906,
    "lon": 8.48632,
    "bundesland": "Hessen",
    "einwohner": 28467,
    "flaeche": 15.8,
    "hoehe": 104,
    "kfz": "",
    "fluesse": []
  },
  {
    "name": "Wangen im Allgäu",
    "lat": 47.6895,
    "lon": 9.83247,
    "bundesland": "Baden-Württemberg",
    "einwohner": 28412,
    "flaeche": 101.35,
    "hoehe": 572,
    "kfz": "",
    "fluesse": []
  },
  {
    "name": "Zeitz",
    "lat": 51.04962,
    "lon": 12.1369,
    "bundesland": "Sachsen-Anhalt",
    "einwohner": 28328,
    "flaeche": 87.74,
    "hoehe": 191,
    "kfz": "ZZ",
    "fluesse": []
  },
  {
    "name": "Kevelaer",
    "lat": 51.58243,
    "lon": 6.24603,
    "bundesland": "Nordrhein-Westfalen",
    "einwohner": 28296,
    "flaeche": 100.64,
    "hoehe": 25,
    "kfz": "",
    "fluesse": []
  },
  {
    "name": "Reinbek",
    "lat": 53.51773,
    "lon": 10.24861,
    "bundesland": "Schleswig-Holstein",
    "einwohner": 28274,
    "flaeche": 31.27,
    "hoehe": 42,
    "kfz": "",
    "fluesse": []
  },
  {
    "name": "Bramsche",
    "lat": 52.40881,
    "lon": 7.97288,
    "bundesland": "Niedersachsen",
    "einwohner": 28220,
    "flaeche": 183.39,
    "hoehe": 62,
    "kfz": "",
    "fluesse": []
  },
  {
    "name": "Kelkheim (Taunus)",
    "lat": 50.13703,
    "lon": 8.4502,
    "bundesland": "Hessen",
    "einwohner": 28175,
    "flaeche": 30.73,
    "hoehe": 198,
    "kfz": "",
    "fluesse": []
  },
  {
    "name": "Höxter",
    "lat": 51.77501,
    "lon": 9.38155,
    "bundesland": "Nordrhein-Westfalen",
    "einwohner": 28166,
    "flaeche": 158.16,
    "hoehe": 100,
    "kfz": "HX",
    "fluesse": []
  },
  {
    "name": "Wegberg",
    "lat": 51.14221,
    "lon": 6.28436,
    "bundesland": "Nordrhein-Westfalen",
    "einwohner": 28089,
    "flaeche": 84.34,
    "hoehe": 61,
    "kfz": "",
    "fluesse": []
  },
  {
    "name": "Lohne (Oldenburg)",
    "lat": 52.66625,
    "lon": 8.2375,
    "bundesland": "Niedersachsen",
    "einwohner": 28089,
    "flaeche": 91.11,
    "hoehe": 45,
    "kfz": "",
    "fluesse": []
  },
  {
    "name": "Leichlingen (Rheinland)",
    "lat": 51.10628,
    "lon": 7.01873,
    "bundesland": "Nordrhein-Westfalen",
    "einwohner": 28078,
    "flaeche": 37.26,
    "hoehe": 63,
    "kfz": "",
    "fluesse": []
  },
  {
    "name": "Bad Neuenahr-Ahrweiler",
    "lat": 50.54322,
    "lon": 7.1113,
    "bundesland": "Rheinland-Pfalz",
    "einwohner": 27961,
    "flaeche": 63.25,
    "hoehe": 101,
    "kfz": "AW",
    "fluesse": []
  },
  {
    "name": "Schwelm",
    "lat": 51.28635,
    "lon": 7.29388,
    "bundesland": "Nordrhein-Westfalen",
    "einwohner": 27953,
    "flaeche": 20.5,
    "hoehe": 229,
    "kfz": "",
    "fluesse": []
  },
  {
    "name": "Baunatal",
    "lat": 51.25182,
    "lon": 9.40747,
    "bundesland": "Hessen",
    "einwohner": 27929,
    "flaeche": 38.27,
    "hoehe": 216,
    "kfz": "",
    "fluesse": []
  },
  {
    "name": "Königsbrunn",
    "lat": 48.27506,
    "lon": 10.89178,
    "bundesland": "Bayern",
    "einwohner": 27879,
    "flaeche": 18.48,
    "hoehe": 516,
    "kfz": "",
    "fluesse": []
  },
  {
    "name": "Heppenheim (Bergstraße)",
    "lat": 49.6436,
    "lon": 8.6368,
    "bundesland": "Hessen",
    "einwohner": 27864,
    "flaeche": 52.12,
    "hoehe": 105,
    "kfz": "",
    "fluesse": []
  },
  {
    "name": "Geislingen an der Steige",
    "lat": 48.62423,
    "lon": 9.82736,
    "bundesland": "Baden-Württemberg",
    "einwohner": 27791,
    "flaeche": 75.83,
    "hoehe": 426,
    "kfz": "",
    "fluesse": []
  },
  {
    "name": "Ehingen (Donau)",
    "lat": 48.28259,
    "lon": 9.72749,
    "bundesland": "Baden-Württemberg",
    "einwohner": 27764,
    "flaeche": 178.33,
    "hoehe": 518,
    "kfz": "",
    "fluesse": []
  },
  {
    "name": "Wiesloch",
    "lat": 49.29504,
    "lon": 8.69846,
    "bundesland": "Baden-Württemberg",
    "einwohner": 27731,
    "flaeche": 30.24,
    "hoehe": 134,
    "kfz": "",
    "fluesse": []
  },
  {
    "name": "Strausberg",
    "lat": 52.57859,
    "lon": 13.88741,
    "bundesland": "Brandenburg",
    "einwohner": 27719,
    "flaeche": 67.94,
    "hoehe": 67,
    "kfz": "STW",
    "fluesse": []
  },
  {
    "name": "Teltow",
    "lat": 52.4031,
    "lon": 13.26014,
    "bundesland": "Brandenburg",
    "einwohner": 27682,
    "flaeche": 21.59,
    "hoehe": 39,
    "kfz": "",
    "fluesse": []
  },
  {
    "name": "Sundern (Sauerland)",
    "lat": 51.3281,
    "lon": 8.00369,
    "bundesland": "Nordrhein-Westfalen",
    "einwohner": 27654,
    "flaeche": 193.27,
    "hoehe": 257,
    "kfz": "",
    "fluesse": []
  },
  {
    "name": "Grimma",
    "lat": 51.23367,
    "lon": 12.71959,
    "bundesland": "Sachsen",
    "einwohner": 27529,
    "flaeche": 218.23,
    "hoehe": 143,
    "kfz": "GRM",
    "fluesse": []
  },
  {
    "name": "Northeim",
    "lat": 51.70662,
    "lon": 9.99997,
    "bundesland": "Niedersachsen",
    "einwohner": 27326,
    "flaeche": 145.85,
    "hoehe": 127,
    "kfz": "NOM",
    "fluesse": []
  },
  {
    "name": "Olching",
    "lat": 48.2,
    "lon": 11.33333,
    "bundesland": "Bayern",
    "einwohner": 27310,
    "flaeche": 29.92,
    "hoehe": 509,
    "kfz": "",
    "fluesse": []
  },
  {
    "name": "Neukirchen-Vluyn",
    "lat": 51.44665,
    "lon": 6.55194,
    "bundesland": "Nordrhein-Westfalen",
    "einwohner": 27140,
    "flaeche": 43.5,
    "hoehe": 33,
    "kfz": "",
    "fluesse": []
  },
  {
    "name": "Verden (Aller)",
    "lat": 52.92343,
    "lon": 9.23491,
    "bundesland": "Niedersachsen",
    "einwohner": 27121,
    "flaeche": 71.7,
    "hoehe": 24,
    "kfz": "",
    "fluesse": []
  },
  {
    "name": "Weinstadt",
    "lat": 48.81441,
    "lon": 9.37736,
    "bundesland": "Baden-Württemberg",
    "einwohner": 27074,
    "flaeche": 31.71,
    "hoehe": 240,
    "kfz": "",
    "fluesse": []
  },
  {
    "name": "Werder (Havel)",
    "lat": 52.37874,
    "lon": 12.934,
    "bundesland": "Brandenburg",
    "einwohner": 27065,
    "flaeche": 117.12,
    "hoehe": 33,
    "kfz": "",
    "fluesse": []
  },
  {
    "name": "Butzbach",
    "lat": 50.43395,
    "lon": 8.67122,
    "bundesland": "Hessen",
    "einwohner": 27046,
    "flaeche": 106.6,
    "hoehe": 206,
    "kfz": "",
    "fluesse": []
  },
  {
    "name": "Pfaffenhofen a.d.Ilm",
    "lat": 48.53053,
    "lon": 11.505,
    "bundesland": "Bayern",
    "einwohner": 26996,
    "flaeche": 92.63,
    "hoehe": 431,
    "kfz": "",
    "fluesse": []
  },
  {
    "name": "Rheinbach",
    "lat": 50.62562,
    "lon": 6.94911,
    "bundesland": "Nordrhein-Westfalen",
    "einwohner": 26918,
    "flaeche": 69.72,
    "hoehe": 182,
    "kfz": "",
    "fluesse": []
  },
  {
    "name": "Hamminkeln",
    "lat": 51.73262,
    "lon": 6.59031,
    "bundesland": "Nordrhein-Westfalen",
    "einwohner": 26873,
    "flaeche": 164.53,
    "hoehe": 25,
    "kfz": "",
    "fluesse": []
  },
  {
    "name": "Leimen",
    "lat": 49.34737,
    "lon": 8.68733,
    "bundesland": "Baden-Württemberg",
    "einwohner": 26873,
    "flaeche": 20.64,
    "hoehe": 112,
    "kfz": "",
    "fluesse": []
  },
  {
    "name": "Hohen Neuendorf",
    "lat": 52.67631,
    "lon": 13.27775,
    "bundesland": "Brandenburg",
    "einwohner": 26857,
    "flaeche": 48.56,
    "hoehe": 56,
    "kfz": "",
    "fluesse": []
  },
  {
    "name": "Lübbecke",
    "lat": 52.30699,
    "lon": 8.61423,
    "bundesland": "Nordrhein-Westfalen",
    "einwohner": 26815,
    "flaeche": 65.04,
    "hoehe": 76,
    "kfz": "LPP",
    "fluesse": []
  },
  {
    "name": "Mühlacker",
    "lat": 48.94754,
    "lon": 8.83675,
    "bundesland": "Baden-Württemberg",
    "einwohner": 26787,
    "flaeche": 54.32,
    "hoehe": 225,
    "kfz": "",
    "fluesse": []
  },
  {
    "name": "Achern",
    "lat": 48.63115,
    "lon": 8.07607,
    "bundesland": "Baden-Württemberg",
    "einwohner": 26733,
    "flaeche": 65.24,
    "hoehe": 145,
    "kfz": "",
    "fluesse": []
  },
  {
    "name": "Hennigsdorf",
    "lat": 52.63598,
    "lon": 13.20419,
    "bundesland": "Brandenburg",
    "einwohner": 26677,
    "flaeche": 31.48,
    "hoehe": 33,
    "kfz": "",
    "fluesse": []
  },